name, lng, lat
10th Of Ramadan Preparatory School For Boys, 32.2580481, 31.267838
10th Of Ramadan Primary School, 31.2731905, 30.0916537
10th Of Ramadan Primary School, 31.709584, 31.400381
10th Of Ramadan Primary School, 29.9831592, 31.2263929
10th Of Ramadan School, 32.2968971, 30.9738421
10Th Of Ramadan School, 31.559585, 30.50361
10th Of Ramadan Secondary School For Boys, 32.538043, 29.968161
10th Of Ramadan Secondary School For Girls, 32.532135, 29.983389
24th Of October Preparatory School, 32.518545, 29.9725943
24th Of October Primary School, 32.5222725, 29.9714609
25th Of January Primary School For Boys, 31.8292, 31.484193
25th Of January School, 31.657104, 31.428114
25th Of January Secondary School For Girls, 32.2796023, 30.5998126
6th Of October Preparatory Mixed School, 30.943056, 29.98095
6th Of October Primary School, 31.3479397, 30.1354801
6th Of October Primary School, 31.59715, 31.08791
6th Of October Primary School, 31.181259, 30.068983
6th Of October Primary School, 31.802239, 31.431174
6th Of October Primary School, 30.0145907, 31.2020892
6th Of October Primary School, 32.2664165, 31.2513022
6th Of October School, 31.176933, 30.04316
6th Of October Secondary School For Boys, 32.4945813, 30.0020546
6th Of October Secondary School For Girls, 30.943218, 29.980676
6th Of October Secondary School For Girls, 32.277792, 31.270033
Aaesha Umm El Moameneen Preparatory School For Girls, 32.501426, 25.593329
Aaesha Umm El Moameneen Secondary School For Girls, 31.2690479, 30.1301378
Abaza New School, 31.570071, 30.489203
Abbas El Akkad Preparatory School For Girls, 31.8048505, 31.4282239
Abbas El Akkad Primary School, 29.9372854, 31.2069861
Abbas El Akkad Primary School, 32.320248, 30.300232
Abbas El Kayyal Preparatory School, 31.594598, 31.18756
Abbas Helmy Secondary School For Girls, 29.791987, 31.111777
Abbas Mahmoud El Akkad Preparatory School For Girls, 32.5066437, 29.9874251
Abbas Mahmoud El Akkad Primary School, 32.284865, 31.260742
Abbas Zaher School, 31.799951, 31.427716
Abbis 10 Primary School, 29.9749046, 31.1732504
Abbis 2 Primary Mixed School, 30.0072267, 31.1888392
Abbis 7 Mixed School, 29.9565826, 31.1486636
Abbis 8 Mixed School, 29.9408166, 31.1231066
Abbis El Oulla Primary School, 30.0264903, 31.1765948
Abdel Aal Abou El Ghait School, 30.0475484, 31.243102
Abdel Aal Kharisa Preparatory School, 31.734494, 31.092772
Abdel Azim El Basaty Secondary School, 31.676574, 31.293734
Abdel Azim Hassan Abaza Preparatory School, 31.569799, 30.489606
Abdel Aziz Abdel Gawad Preparatory School For Boys, 29.9393374, 31.220018
Abdel Aziz Aly Primary School, 31.503779, 30.589741
Abdel Aziz El Sayed Secondary School For Boys, 31.352905, 30.053766
Abdel Aziz Gawish Preparatory School For Boys, 29.9683161, 31.2382059
Abdel Aziz Gawish Primary Mixed School, 31.2580374, 30.0856604
Abdel Aziz Haroun School, 29.961168, 31.1278043
Abdel Aziz Ibn Marawan School, 31.3178265, 29.8404224
Abdel Aziz Radwan School, 31.508349, 30.585137
Abdel Baeth Ahmed Abdel Fattah El Naggar Primary School, 31.46346, 30.911762
Abdel Basset Abdel Samad Primary School, 29.7198307, 30.7467504
Abdel Basset Abou El Ezz Primary Mixed School, 31.4816995, 31.081299
Abdel Fattah Nasser School, 31.284498, 29.775954
Abdel Ghaffar Bahwashy School, 31.267895, 29.773113
Abdel Hady El Emam Primary School, 31.727657, 31.366967
Abdel Halim Mogahed Primary School, 31.6043, 31.084942
Abdel Hamid Abdel Rahman Mowafy School, 31.728837, 31.24199
Abdel Hamid Abou Salha Primary School, 31.8483, 31.512342
Abdel Hamid Aly Mixed Secondary School, 31.1970011, 30.9708478
Abdel Hay Khalil Preparatory School For Boys, 31.160701, 30.965369
Abdel Khaleq Hasouna Preparatory School For Girls, 30.017581, 31.276428
Abdel Latif Hassanein Preparatory School, 31.51469, 30.588393
Abdel Latif Othman Preparatory School, 31.488485, 30.831535
Abdel Magid Selim Primary Mixed School, 31.171394, 30.9749414
Abdel Magid Shalaby Primary School, 31.565807, 31.412279
Abdel Maqsoud Lotfy Preparatory School, 31.502545, 30.865394
Abdel Mawgoud Awayan School, 31.222289, 29.886592
Abdel Mohameen El Sokkary Elementary School For Girls, 31.2415915, 30.7188949
Abdel Moneim El Odaysy Primary School, 32.504556, 25.588206
Abdel Moneim Mai Primary School, 31.684034, 31.264429
Abdel Moneim Riad Preparatory School, 31.3206267, 29.854714
Abdel Moneim Riad Preparatory School For Boys, 31.8099649, 31.4262347
Abdel Moneim Riad Preparatory School For Girls, 31.173894, 30.956179
Abdel Moneim Riad Primary School, 31.2588821, 30.0870147
Abdel Moneim Riad Primary School, 31.348844, 30.722153
Abdel Moneim Riad Primary School, 29.919886, 31.192447
Abdel Moneim Riad School, 31.321861, 29.859515
Abdel Moneim Sanad Preparatory Profession School For Boys, 32.5333392, 29.96808
Abdel Moneim Soliman School, 31.264772, 29.780069
Abdel Qader El Marqaby Preparatory School, 31.687344, 31.265227
Abdel Qader Preparatory School For Girls, 31.358816, 30.052583
Abdel Rahim Ramadan El Sabaa Primary School, 31.71636, 31.093422
Abdel Rahman Abou Zahra Primary School, 29.6974235, 30.7693708
Abdel Rahman El Faresy Preparatory School For Girls, 29.9576837, 31.1983599
Abdel Rahman El Kawakby Primary School, 29.892092, 31.187397
Abdel Rahman Ibn Ouf Primary School, 32.556009, 29.986275
Abdel Rahman Shokry Secondary School For Boys, 32.2648064, 31.2633651
Abdel Rahman Shokry Secondary School For Boys, 32.261558, 31.266667
Abdel Raouf Badawy Primary School, 32.692518, 25.761264
Abdel Salam Abdel Ghaffar Preparatory School For Boys, 30.018864, 31.275876
Abdel Salam Aref Primary School, 29.9254736, 31.2113613
Abdel Salam Aref Primary School, 31.809437, 31.424438
Abdel Salam Atwan Preparatory School For Boys, 31.913363, 30.861061
Abdel Samad Village Preparatory Mixed School, 31.0857282, 30.1107248
Abdel Wahab Abdel Mohsen Primary School, 31.252346, 29.572393
Abdel Wahab Zaidan Preparatory School, 31.328252, 30.802386
Abdel Zaher El Tayeb Primary School, 32.550854, 25.357498
Abdin Institution, 29.77473, 31.101626
Abdin Secondary School For Girls, 31.241527, 30.042092
Abdou Mabrouk Abdou Mahgoub Primary School, 30.060611, 31.315638
Abdullah El Gamal Primary School, 31.753272, 31.262317
Abdullah El Nadeem Primary School, 31.265963, 30.716345
Abdullah El Nadeem School, 32.5315368, 29.9692813
Abdullah El Nadeem School, 31.442345, 30.566095
Abdullah El Nadeem School, 31.473556, 30.53731
Abdullah El Nadim Primary Mixed School, 31.186371, 27.17728
Abdullah El Nadim Primary School, 31.310204, 30.124101
Abdullah El Nadim Primary School, 31.3307869, 30.0509622
Abdullah El Nadim Primary School For Boys, 29.94696, 31.223868
Abdullah Ibn El Zobair Primary School, 31.014868, 30.777694
Abdullah Ibn Rawaha Preparatory School For Boys, 31.2172598, 30.0999338
Abi El Dardaa Primary School, 29.894341, 31.191318
Abi Obaida Ibn El Garrah Primary School, 32.277349, 31.26187
Abnaa El Nil Primary School, 29.934192, 31.211021
Abnoub New Preparatory School For Girls, 31.153342, 27.265194
Abou Adawy Primary School, 31.58285, 31.33357
Abou Aly Primary Mixed School, 32.713975, 25.733882
Abou Amer Primary School, 31.507022, 30.59619
Abou Bakr El Razy Primary Mixed School, 29.7639249, 31.0906568
Abou Bakr El Seddik El Gadida School, 29.7584546, 30.9106614
Abou Bakr El Seddik Preparatory School, 31.29194, 30.731035
Abou Bakr El Seddik Preparatory School For Boys, 31.3351, 30.136858
Abou Bakr El Seddik Preparatory School For Girls, 30.815105, 27.436282
Abou Bakr El Seddik Primary Mixed School, 31.238122, 30.0900023
Abou Bakr El Seddik Primary Mixed School, 31.463534, 30.88835
Abou Bakr El Seddik Primary Mixed School, 30.8151296, 27.43634
Abou Bakr El Seddik Primary School, 31.2507534, 30.0437704
Abou Bakr El Seddik Primary School, 31.712691, 31.276135
Abou Bakr El Seddik Primary School, 31.484158, 31.041021
Abou Bakr El Seddik Primary School, 29.4704979, 30.9246083
Abou Bakr El Seddik Primary School, 32.554183, 25.298006
Abou Bakr El Seddik Primary School, 29.744006, 31.084517
Abou Bakr El Seddik Primary School, 31.279492, 29.655761
Abou Bakr El Seddik Primary School, 30.838513, 27.730292
Abou Bakr El Seddik Primary School, 31.0043463, 30.7952079
Abou Bakr El Seddik Primary School, 32.501201, 25.512884
Abou Bakr El Seddik Primary School, 32.257811, 30.598639
Abou Bakr El Seddik Primary School, 31.631822, 31.139164
Abou Bakr El Seddik Primary School, 32.544765, 25.619491
Abou Bakr El Seddik Primary School, 31.206509, 30.038272
Abou Bakr El Seddik Primary School, 31.567073, 30.416916
Abou Bakr El Seddik Primary School, 31.633453, 31.308448
Abou Bakr El Seddik Primary School, 31.287357, 30.781165
Abou Bakr El Seddik Primary School, 31.793433, 31.383734
Abou Bakr El Seddik School, 31.218504, 29.953219
Abou Bakr El Seddik Secondary Mixed School, 31.677665, 31.426681
Abou Bakr El Seddik Secondary Mixed School, 31.9421911, 30.6350249
Abou Bakr El Seddik Secondary School For Boys, 31.311877, 30.319208
Abou Besisa Primary School, 29.7675808, 30.9770089
Abou Doma Preparatory School, 29.699864, 30.960903
Abou Doma Primary School, 29.697375, 30.961317
Abou El Akhdar Preparatory School, 31.570761, 30.571116
Abou El Akhdar Primary School, 31.570534, 30.571527
Abou El Ela Preparatory School For Girls, 31.233649, 30.056269
Abou El Ela Primary School, 31.230676, 30.056038
Abou El Ezz El Hariry School, 29.9124214, 31.1916834
Abou El Ezz Primary School, 31.783152, 31.410196
Abou El Ezz Primary School, 31.651713, 31.291296
Abou El Fadl Primary School, 31.916292, 30.755639
Abou El Farag Primary Mixed School, 31.2342701, 30.0758211
Abou El Farag Primary School, 31.230412, 30.056337
Abou El Fotouh El Dengawy Primary School, 31.615959, 31.407467
Abou El Fotouh El Hariry Preparatory School For Girls, 31.622021, 31.20513
Abou El Gahour Primary Mixed School, 31.120743, 30.718044
Abou El Goud Primary School, 32.648889, 25.705336
Abou El Houl El Qawmeya Mixed School, 31.208815, 30.012356
Abou El Houl Preparatory School For Boys, 29.8729668, 31.1608934
Abou El Houl Preparatory School For Boys, 31.210646, 30.010897
Abou El Nomrous Primary Mixed School, 31.2190652, 29.952897
Abou El Saud El Souda Primary School, 31.764318, 31.173961
Abou El Saud Primary School, 31.2367895, 30.0139375
Abou El Seoud Preparatory School For Boys, 31.236856, 30.013912
Abou El Shohadaa Primary School, 31.329107, 30.808162
Abou Gerida School, 31.755027, 31.306106
Abou Hamad School, 31.235129, 29.501983
Abou Hamed El Ghazaly Secondary School, 32.548724, 30.093478
Abou Hammad New Preparatory Mixed School, 31.671803, 30.525673
Abou Hammad Secondary School For Boys, 31.6889932, 30.5358414
Abou Hammad Secondary School For Girls, 31.688101, 30.534897
Abou Homos New Preparatory School For Girls, 30.312698, 31.098172
Abou Homos Secondary Mixed School, 30.313192, 31.09656
Abou Kabir Secondary School For Boys, 31.671419, 30.730795
Abou Khalil Primary School, 31.850073, 30.708117
Abou Khalil School, 31.509197, 30.581553
Abou Matirid Primary School, 29.722166, 30.969957
Abou Nabhan Primary School, 31.255481, 30.743249
Abou Nagah Primary School, 31.348667, 30.599429
Abou Obaida Ibn El Garrah Primary School, 29.8551428, 31.079461
Abou Qaramit Preparatory School, 31.544251, 30.833483
Abou Qaramit Primary School, 31.540298, 30.835244
Abou Qurqas Secondary School For Boys, 30.81864, 27.928192
Abou Ragwan El Bahary School, 31.2697213, 29.7863013
Abou Ragwan El Qebly School, 31.269413, 29.768967
Abou Rashed Preparatory School, 31.597474, 31.368598
Abou Saada El Soghra School, 31.543095, 31.342578
Abou Saada School, 31.549905, 31.33077
Abou Salem School, 31.781862, 30.71934
Abou Saqr School, 31.804701, 30.757437
Abou Seir Preparatory School For Girls, 31.212357, 29.89821
Abou Shehata Primary School, 32.2512035, 30.5628501
Abou Soliman Primary School, 29.987022, 31.230138
Abou Sowair Secondary Mixed School, 32.117061, 30.567326
Abou Taleb Primary School, 31.658317, 31.354308
Abou Temraz School, 31.801085, 30.731664
Abou Tig Preparatory School For Girls, 31.319793, 27.049447
Abou Zaabal El Balad Preparatory Mixed School, 31.348506, 30.244086
Abou Zaabal El Balad Primary Mixed School, 31.348638, 30.244072
Abou Zaafa Primary Mixed School, 32.500488, 25.344045
Abtal El Obour Primary Mixed School, 31.3016622, 30.1263702
Abtal Sinaa Primary School, 31.210691, 30.4281846
Adel Gabr Secondary School For Boys, 31.076663, 30.14023
Adel Nasser School, 31.232784, 29.668874
Adly Aiad Primary Mixed School, 29.9072474, 31.1804271
Advanced Technical School For Maintenance Technology, 31.3595566, 30.0678085
Aga Secondary School For Boys, 31.293572, 30.942694
Ahaly El Marazeeq School, 31.254086, 29.813242
Ahd El Eslah Primary School, 29.897899, 31.19281
Ahmed Abbas Primary School, 29.9724219, 31.2407426
Ahmed Abdel Aziz Primary Mixed School, 31.241826, 30.075025
Ahmed Abdel Aziz Primary Mixed School, 31.1950621, 30.0123256
Ahmed Abdel Aziz Primary School, 31.2487046, 30.0175559
Ahmed Abdel Malek Preparatory School, 31.427411, 31.098507
Ahmed Abdel Rahim Secondary School For Girls, 30.8233371, 27.4398036
Ahmed Abdel Wahab Preparatory School, 31.463857, 30.597231
Ahmed Abdou El Sharbasy Secondary School For Boys, 31.732678, 31.156018
Ahmed Abdou Primary Old School, 32.52777, 29.971136
Ahmed Aboud Primary School, 29.8813372, 31.200869
Ahmed Agha Primary Mixed School, 30.9924262, 30.7762639
Ahmed Aly Preparatory School For Boys, 31.2390071, 30.9687554
Ahmed Amin Primary School, 31.2588312, 30.039251
Ahmed Atteya Taweela Primary School, 31.401334, 30.671939
Ahmed El Gaoudy Primary School, 31.273279, 29.8557108
Ahmed El Gohary Primary School, 31.344745, 30.684703
Ahmed El Hefny Primary School, 31.718728, 31.145145
Ahmed El Wafaey Primary School, 31.746422, 31.383794
Ahmed El Wakil Secondary School For Girls, 29.85517, 31.160855
Ahmed El Zeiny Primary School, 31.56246, 31.086341
Ahmed Essmat El Azizy Preparatory School For Girls, 31.405183, 31.075161
Ahmed Fathey El Akkad School, 31.2898778, 30.1202811
Ahmed Fouad Abdel Aziz Preparatory School, 31.2758258, 30.0639987
Ahmed Fouad Shohdy Primary Mixed School, 31.0691888, 30.135302
Ahmed Hammam Primary School, 31.473797, 30.944468
Ahmed Hassan El Zayyat Primary Mixed School, 31.3771542, 31.0558268
Ahmed Hassan El Zayyat Secondary School for Boys, 31.377135, 31.055737
Ahmed Ibn Edris School, 32.584639, 25.327444
Ahmed Ibn Tolon Primary School, 31.250243, 30.0300401
Ahmed Ibrahim Deraz Primary School, 31.62141, 31.083913
Ahmed Ibrahim Mogahed Primary School, 32.545295, 25.298534
Ahmed Ibrahim Soliman School, 31.698858, 31.221809
Ahmed Ismail El Sharqawy School, 31.555883, 31.371062
Ahmed Kamel El Sayed Primary School, 31.534479, 30.858423
Ahmed Khalil El Sayed Primary School, 31.503999, 30.642232
Ahmed Lotfy El Sayed Primary School, 31.2284218, 30.024494
Ahmed Lotfy El Sayed Primary School, 31.53089, 30.855756
Ahmed Lotfy El Sayed Primary School, 31.399414, 31.042894
Ahmed Lotfy El Sayed Secondary Military School For Boys, 31.194369, 30.009838
Ahmed Lotfy El Sayed Secondary School For Boys, 31.4568722, 30.8875218
Ahmed Maher Preparatory School For Boys, 31.224219, 30.022583
Ahmed Maher Secondary School For Boys, 32.029258, 31.186542
Ahmed Mogahed Preparatory School For Boys, 31.603922, 31.083805
Ahmed Mohamed El Naggar Preparatory School, 31.714992, 31.146708
Ahmed Orabi Preparatory School, 31.495268, 30.584075
Ahmed Orabi Preparatory School For Boys, 31.167651, 30.959299
Ahmed Orabi Primary Experimental School, 31.5993551, 31.0879372
Ahmed Orabi Primary Mixed School, 31.2512326, 30.0922108
Ahmed Orabi Primary Mixed School, 32.548424, 29.977734
Ahmed Orabi Primary School, 31.425599, 31.118032
Ahmed Orabi Primary School, 29.9203312, 31.1961494
Ahmed Orabi Primary School, 31.24461, 30.72044
Ahmed Orabi Primary School, 31.274909, 29.8482018
Ahmed Orabi Primary School, 31.8371, 31.503282
Ahmed Orabi Primary School, 32.2869083, 31.2624791
Ahmed Orabi Primary School, 32.747165, 29.566748
Ahmed Orabi Private School, 31.252579, 30.089441
Ahmed Orabi School, 31.312996, 30.140488
Ahmed Orabi School, 31.219518, 30.073834
Ahmed Orabi School For Boys, 31.519293, 30.597005
Ahmed Orabi School For Girls, 31.519293, 30.597005
Ahmed Orabi Secondary School, 31.241504, 30.039432
Ahmed Orabi Secondary School, 31.518949, 30.596501
Ahmed Orabi Secondary School For Girls, 31.192747, 29.990483
Ahmed Qadry School, 31.514293, 30.613687
Ahmed Qorashy Secondary School For Boys, 30.808034, 27.554314
Ahmed Ramadan Preparatory School For Boys, 32.5475509, 29.9795812
Ahmed Ramadan Primary School, 32.5470561, 29.9802504
Ahmed Rashed Primary Mixed School, 31.2563663, 29.4115151
Ahmed Saad School, 31.367571, 30.675305
Ahmed Shawky Preparatory School For Boys, 32.2863078, 31.2495434
Ahmed Shawky Preparatory School For Girls, 31.212219, 29.998661
Ahmed Shawky Primary Mixed School, 31.260594, 30.08439
Ahmed Shawky Primary School, 31.288558, 30.117263
Ahmed Shawky Primary School, 32.5373653, 29.9762321
Ahmed Shawky School, 31.168106, 30.031933
Ahmed Shelbaya Secondary School For Girls, 31.932602, 31.162332
Ahmed Taha Hussein Secondary Mixed School, 32.899739, 24.113918
Ahmed Talaat Primary Mixed School, 29.914514, 31.186218
Ahmed Youssef Preparatory School, 31.572953, 30.888977
Ahmed Zowail Preparatory Mixed School, 31.2508896, 30.0038461
Ahmed Zowail Primary School, 31.61435, 31.419927
Ahmidan Soliman Amer School, 32.2027838, 30.9928499
Ahmos Preparatory School For Boys, 29.892407, 31.186674
Ahmos Primary School, 32.656662, 25.72234
Ain El Sira Mixed School, 31.2462356, 30.0152649
Ain El Sira Preparatory School For Girls, 31.2411126, 30.0168349
Ain Helwan Vocational School For Boys, 31.3226116, 29.856753
Aioub Sharara Primary School, 31.946349, 30.794576
Akhmeem Preparatory School For Boys, 31.750494, 26.564696
Al Nasser Primary Mixed School, 31.282502, 29.778998
Al Seraj Al Muneer Azharian Institute, 31.293182, 30.001718
Alam El Din Secondary School For Girls, 32.286756, 31.264424
Alexandria Agriculture Secondary School, 30.0088039, 31.2498965
Alexandria Commercial & Maritime Bank Technical School For Girls, 30.0574752, 31.3013146
Alia Roshdy Preparatory School For Girls, 31.100369, 29.077241
Almaza Primary Mixed School, 31.3488085, 30.0894796
Aly Abdel Fattah Primary School, 31.266054, 29.630244
Aly Abdel Gawad School, 31.271596, 29.785447
Aly Abou Aaesha Preparatory School, 31.32906, 30.646783
Aly Ahmed Kaawa Primary School, 31.367155, 30.821359
Aly El Fallal Primary School, 31.206298, 31.206298
Aly El Garem Primary School, 31.226947, 30.015325
Aly Ibn Abi Taleb Preparatory For Boys, 31.334454, 30.037954
Aly Ibn Abi Taleb Preparatory Mixed School, 33.084315, 28.343915
Aly Ibn Abi Taleb Preparatory School, 31.252082, 30.090448
Aly Ibn Abi Taleb Preparatory School, 34.517466, 28.504855
Aly Ibn Abi Taleb Preparatory School, 30.984572, 30.294343
Aly Ibn Abi Taleb Preparatory School, 29.997757, 31.261412
Aly Ibn Abi Taleb Preparatory School For Boys, 32.2669456, 31.2592562
Aly Ibn Abi Taleb Primary School, 31.267237, 29.971272
Aly Ibn Abi Taleb Primary School, 31.342629, 30.760046
Aly Ibn Abi Taleb Primary School, 32.564166, 25.627104
Aly Ibn Abi Taleb Primary School, 32.5385347, 29.9744883
Aly Ibn Abi Taleb Primary School, 31.508628, 31.113384
Aly Ibn Abi Taleb Primary School, 31.779054, 31.397477
Aly Ibn Abi Taleb Primary School, 32.657429, 25.64643
Aly Ibn Abi Taleb Primary School, 29.8427429, 31.0169375
Aly Ibn Abi Taleb Primary School, 32.2633749, 31.2575173
Aly Ibn Abi Taleb Primary School, 31.265759, 30.726993
Aly Ibn Abi Taleb School, 31.341781, 29.844194
Aly Ibn Abi Taleb School, 31.689795, 31.430512
Aly Ismail Primary School, 31.472598, 30.849963
Aly Kilany Primary School, 30.8173988, 27.5573707
Aly Mohamed Ahmed Preparatory School For Girls, 30.9892772, 30.7835116
Aly Mubarak Preparatory School For Boys, 31.5998271, 31.088029
Aly Mubarak Preparatory School For Girls, 30.819826, 27.552216
Aly Mubarak Primary School, 32.3092756, 31.2685052
Aly Mubarak Primary School, 31.345657, 30.721346
Aly Mubarak Primary School, 31.569509, 31.415726
Aly Mubarak Primary School, 31.716318, 31.144339
Aly Mubarak Primary School, 31.59256, 31.086522
Aly Mubarak Primary School, 32.266094, 30.611967
Aly Mubarak Primary School, 32.500091, 29.966609
Aly Mubarak Secondary School For Boys, 31.600523, 31.088188
Aly Pasha Mubarak Primary School, 31.716318, 31.144339
Aly Sengab Primary School, 31.272122, 30.736303
Aly Soliman Schools Complex, 32.2628223, 31.249023
Amer Village Primary School, 32.559775, 30.038328
Amin El Khouly Secondary School For Boys, 30.983537, 30.294308
Amin El Nasharty Secondary School For Girls, 31.284674, 30.055889
Amin El Rafeay Preparatory Training School, 29.914634, 31.186071
Amin Fekry Primary School, 31.2910767, 30.0844819
Amin Samy Preparatory School For Girls, 31.2365556, 30.0337038
Amina Salama Primary School, 31.32281, 30.803469
Amir El Geyoush Preparatory School For Girls, 31.259204, 30.054673
Amir El Geyoush Secondary School For Girls, 31.258865, 30.054995
Amir El Lewaa Preparatory School For Boys, 31.231287, 30.060982
Amir El Moameneen Primary School, 31.28844, 30.642777
Amir El Shoaraa Preparatory School For Boys, 29.786064, 31.105246
Amir El Shoaraa Primary School, 29.7865265, 31.1054914
Amir El Shoaraa Secondary School For Boys, 31.354171, 30.058796
Ammar Ibn Yasser Preparatory School, 32.632047, 25.664075
Ammar Ibn Yasser Primary School, 31.287332, 30.604187
Ammar Ibn Yasser Primary School, 32.631899, 25.663939
Ammar Ibn Yasser Primary School, 31.192021, 29.939921
Ammar Ibn Yasser Primary School, 32.585202, 25.294575
Ammar Ibn Yasser Primary School, 29.819342, 31.1352134
Ammar Ibn Yasser School, 31.23397, 29.984216
Amoud El Sawary Primary School, 29.8978865, 31.1774197
Amoun Primary School, 29.9612242, 31.214031
Amr Abdel Aziz Shaeer Preparatory Mixed School, 29.986342, 31.254856
Amr Ibn El Aas Preparatory Mixed School, 33.9380577, 26.7582398
Amr Ibn El Aas Preparatory School, 30.814285, 27.586635
Amr Ibn El Aas Preparatory School For Boys, 31.227956, 30.011039
Amr Ibn El Aas Preparatory School For Boys, 31.328973, 30.155418
Amr Ibn El Aas Preparatory School For Girls, 31.2273113, 30.0090832
Amr Ibn El Aas Primary Mixed School, 31.55783, 30.419315
Amr Ibn El Aas Primary School, 31.2571388, 30.0716844
Amr Ibn El Aas Primary School, 31.2280771, 30.0107834
Amr Ibn El Aas Primary School, 32.682341, 25.753044
Amr Ibn El Aas Primary School, 29.9125367, 31.191401
Amr Ibn El Aas Primary School, 31.260886, 30.774909
Amr Ibn El Aas Primary School, 31.209304, 30.009369
Amr Ibn El Aas Primary School, 31.818981, 31.421952
Amr Ibn El Aas Primary School, 31.410537, 31.091578
Amr Ibn El Aas Primary School, 32.5411337, 29.9886674
Amr Ibn El Aas School, 31.209578, 30.009383
Amr Mousa Secondary School For Boys, 31.121841, 30.193295
Anas Ibn Malek Mixed School, 31.156642, 30.118171
Anas Ibn Malek Primary School, 31.302238, 29.904967
Anas Ibn Malek School, 31.1926116, 30.4752093
Ansaf Serry Preparatory School For Girls, 31.237183, 30.089922
Anshas El Basal Primary School, 31.569573, 30.506173
Antar Ibn Shaddad Primary School, 31.2351824, 29.9922114
Arab El Maamal Primary School, 32.5038228, 29.9610393
Arab El Tal Primary School, 31.27122, 29.926364
Arad Abou Meliha Primary School, 31.656368, 30.720699
Ard El Awayed Secondary School, 29.9982709, 31.2123047
Ard El Gamarek Primary School, 29.722777, 31.010185
Ard Koleyet El Zeraah Preparatory School, 29.9936601, 31.2154658
Ard Koleyet El Zeraah Primary School, 29.9936601, 31.2154658
Arment Agriculture Secondary School, 32.439966, 25.572892
Arment El Hait Preparatory School For Boys, 32.497022, 25.663195
Arment El Hait Preparatory School For Girls, 32.497231, 25.662616
Arment Modern Preparatory School, 32.49993, 25.603046
Arment Primary Mixed School, 32.51495, 25.60852
Arment Primary School For Boys, 32.508849, 25.604962
Arment Primary School For Girls, 32.509435, 25.604553
Arment Secondary School For Boys, 32.499868, 25.603525
Arment Secondary School For Girls, 32.496577, 25.602775
Asas El Max Primary School, 29.8366195, 31.14587
Asfoun Preparatory Mixed School, 32.540908, 25.389924
Asfoun Primary School, 32.540329, 25.389716
Ashmoun El Romman Preparatory School, 31.636001, 31.085493
Ashmoun New Primary School, 30.976479, 30.292457
Ashmoun Secondary School For Girls, 30.976949, 30.302747
Ashraf Gawish Secondary Mixed School, 31.307054, 31.100568
Ashtoum El Gamil Primary School, 32.3027364, 31.2691767
Asmaa Bent Abi Bakr Preparatory School For Girls, 31.1972317, 27.1793061
Asmaa Bent Abi Bakr Preparatory School For Girls, 29.7990498, 31.017873
Asmaa Bent Abi Bakr Primary School, 31.340722, 29.845534
Asmaa Bent Abi Bakr Secondary School For Girls, 32.543258, 29.9847134
Asmaa Bent Aby Bakr Primary School, 31.414139, 30.16446
Asmaa Bint Abi Bakr Preparatory School For Girls, 31.296618, 30.115709
Asmaa Bint Abi Bakr Preparatory School For Girls, 31.566545, 30.409151
Asmaa Preparatory School For Girls, 31.255931, 30.130063
Asmaa Secondary School For Girls, 31.278414, 29.939607
Astanha Secondary Mixed School, 31.117577, 30.468118
Aswan Secondary School For Girls, 32.881114, 24.062169
Asyout Secondary School For Girls, 31.195988, 27.182835
Atef El Sadat Primary School, 30.084692, 31.280151
Atef El Sadat Primary School, 32.2844195, 31.2369399
Atef El Sharqawy Primary Mixed School, 31.3792464, 31.052201
Atef Mekhaimar Primary School, 31.543022, 31.081645
Atef Sharaf El Din Primary School, 31.747098, 31.382995
Atfih Primary Mixed School, 31.246447, 29.407086
Atlas Primary School, 31.3475427, 29.8365165
Atmida Preparatory School For Girls, 31.342642, 30.760189
Atmida School, 31.342661, 30.760168
Attallah School, 31.723669, 31.232415
Atteya Atteya Sayed Ahmed School, 31.415947, 30.820226
Auseem Primary School, 31.134905, 30.130258
Auseem School For Primary Education, 31.134663, 30.130174
Auseem Secondary Mixed School, 31.129224, 30.131024
Awad El Sayyad Preparatory School For Boys, 31.825215, 31.422378
Awad El Sayyad Primary School, 31.825215, 31.422378
Awad Khalil Primary School, 31.764506, 31.354759
Awad Shalaby Ashour Secondary School, 31.565105, 31.415955
Azab Ramzy Primary School, 31.56857, 30.858515
Aziz Abaza Preparatory School For Girls, 31.34584, 30.515364
Aziz Abaza Primary Mixed School, 30.0041315, 31.2730788
Aziz Ezzat Primary School, 31.2148753, 30.0719768
Bab El Fotouh Primary School, 29.9079019, 31.1855671
Bab El Haras Primary School For Boys, 31.8187, 31.419105
Bab El Karaseta Primary School, 29.8841846, 31.1945236
Bab El Shaareya Preparatory School For Boys, 31.258708, 30.055144
Bab El Shaareya Preparatory School For Girls, 31.259453, 30.061105
Bab El Shaareya Secandry School For Boys, 31.262, 30.0587
Badawy Badawy Mohamed Primary School, 31.4000925, 31.0577294
Badr Preparatory School For Boys, 30.8173716, 27.5549989
Badr Preparatory School For Boys, 31.205352, 30.037616
Badr Primary School, 32.2828692, 31.240646
Badr Primary School, 33.630792, 28.245619
Baghdad Primary School, 29.7976149, 30.879037
Baghdad Secondary School, 29.8009783, 30.8779436
Bahaa El Din Primary School, 31.25989, 30.716414
Bahaa El Din Raslan School, 31.534806, 30.565226
Bahaida Preparatory School, 31.287185, 30.781202
Bahbeet El Gadida Primary School, 31.266784, 29.643472
Bahbeet El Qadima Primary School, 31.266784, 29.643472
Bahbeet Preparatory Mixed School, 31.266784, 29.643472
Bahethat El Badeya Primary Mixed School, 31.236207, 30.084767
Bahethat El Badeya Primary School, 29.920733, 31.190068
Bahethat El Badeya Primary School, 27.247285, 31.355228
Bahgat Preparatory School, 31.492645, 30.560547
Bahgat Youssef Preparatory School For Girls, 31.135221, 30.553433
Bahida Primary School, 31.299773, 30.79741
Bahnabay Secondary Mixed School, 31.478807, 30.649289
Bahnay Preparatory School For Girls, 31.068074, 30.392569
Bahtim Secondary School For Girls, 31.2740703, 30.1350996
Bahtim Secondary School For Girls, 31.274251, 30.135037
Bain El Ganayen Primary School, 31.273371, 30.0660285
Bain El Sarayat Mixed School, 31.204334, 30.031165
Bakous Primary School, 29.9694934, 31.2356808
Baligh Secondary School For Girls, 31.5683368, 30.7195523
Bamha School, 31.238127, 29.58955
Banat El Ghawabin Primary School, 31.758363, 31.330422
Banat El Gomrok Primary School, 31.807405, 31.427954
Banat El Shatea Primary School For Girls, 31.836255, 31.506895
Banat Ezbet El Borg Primary School For Girls, 31.837397, 31.507958
Banayous School, 31.502118, 30.607548
Banbaqaden Preparatory School For Boys, 31.252085, 30.031175
Bandar Ibn Sultan Ibn Abdel Aziz School, 31.3542751, 29.8361162
Bangar 1 Primary School, 29.7646449, 30.8079542
Bangar 13 Primary School, 29.7104751, 30.8273958
Bangar 15 Primary School, 29.7065377, 30.8039251
Bangar 17 Primary School, 29.6800509, 30.7977391
Bangar 18 Primary School, 29.650737, 30.8130132
Bangar 2 Primary School, 29.7977273, 30.7971906
Bangar 20 Primary School, 29.6221125, 30.7814303
Bangar 4 Primary School, 29.734277, 30.7910595
Bangar 5 Primary School, 29.7309296, 30.8071225
Bangar 6 Primary School, 29.7678904, 30.8263522
Banha Old Preparatory School For Girls, 31.1788344, 30.4584379
Banha Secondary School For Girls, 31.1845032, 30.469074
Bani Amer School, 31.564788, 30.593371
Bani Ebad Preparatory School, 31.414579, 30.644309
Bani Ebaid Secondary Mixed School, 31.640866, 31.028146
Bani El Gaishy Primary School, 30.46327, 31.040532
Bani El Rahamna Primary School, 31.754351, 31.292295
Bani El Serw Primary School, 31.654366, 31.237727
Bani Faraskour Primary School, 31.683546, 31.352844
Bani Salama Preparatory Mixed School, 30.844955, 30.321898
Bani Shebl Preparatory School, 31.4317, 30.596356
Bani Shebl Primary School, 31.432014, 30.596594
Baraem Misr School, 31.21079, 29.990489
Bardis Secondary School For Boys, 31.937202, 26.281794
Barhamtoush Primary School, 31.357724, 30.821018
Bashaloush Preparatory School, 31.306961, 30.709545
Bashaloush Secondary School, 31.309151, 30.712249
Bashmas Preparatory School, 31.480862, 30.860094
Bashmas Primary School, 31.480857, 30.860136
Bashteel Secondary Mixed School, 31.182788, 30.090941
Batra Preparatory School For Boys, 31.435361, 31.164058
Batra Primary School, 31.436032, 31.164795
Batra Secondary Mixed School, 31.443102, 31.167582
Bawil School, 32.510101, 25.322241
Bayoumi El Zanaty School, 32.555457, 25.288318
Bedef School, 31.234844, 29.646237
Bedsa Primary Mixed School, 31.262434, 29.676791
Bedway Preparatory School For Boys, 31.488141, 31.149687
Bedway Preparatory School For Girls, 31.488077, 31.151661
Bedway Primary School, 31.481455, 31.145163
Bedway Secondary Technical School For Girls, 31.488274, 31.149394
Belal Ibn Rabbah El Gadida Primary School, 29.8173491, 31.1351261
Belal Ibn Rabbah Preparatory School, 32.550184, 30.093306
Belal Ibn Rabbah Preparatory School For Girls, 29.8175637, 31.1354659
Belal Ibn Rabbah Primary School, 32.2815188, 30.9391838
Belal Ibn Rabbah Primary School, 31.362576, 31.107211
Belal Ibn Rabbah Primary School, 30.0075943, 31.1890976
Belal Primary Mixed School, 31.2568438, 30.0939374
Belal Primary School For Boys, 31.2586811, 30.0816035
Belal Secondary School For Girls, 31.257607, 30.086976
Belal Wasea School, 31.56931, 30.489704
Belbeis Modern Secondary School For Girls, 31.579543, 30.40827
Belbeis Secondary School For Boys, 31.5574599, 30.4186766
Belbeis Secondary School For Girls, 31.557886, 30.415279
Belqas Preparatory School For Boys, 31.362209, 31.216602
Belqas Preparatory School For Girls, 31.354937, 31.217155
Belqas Secondary School For Boys, 31.356815, 31.208103
Belqas Secondary School For Girls, 31.354728, 31.216929
Bent El Shatea Preparatory Girls School, 29.780084, 31.112397
Bent El Shatea Preparatory School For Girls, 29.780229, 31.112563
Bernasht School, 31.248636, 29.697354
Berqin Preparatory School, 31.53335, 30.855987
Beshla Preparatory School For Girls, 31.260502, 30.779852
Bigam Secondary School For Girls, 31.252847, 30.131622
Bisha Qayed School, 31.545648, 30.640898
Bobasta Preparatory School For Boys, 31.508797, 30.576353
Bobasta Preparatory School For Girls, 31.509287, 30.577107
Bohormos El Gadida Primary Mixed School, 31.1137428, 30.1716417
Bolkeley Elementary Mixed School, 29.959734, 31.226739
Bolkeley Primary School, 29.9596873, 31.2266742
Bordain School, 31.56724, 30.530845
Borg El Arab El Gadida Primary School, 29.5857525, 30.8844006
Borg El Arab Primary School, 29.5419279, 30.9083648
Borg El Arab Primary School For Boys, 29.5419064, 30.9084155
Borg Nour El Arab Preparatory School, 31.462282, 30.833336
Borg Nour El Arab Primary School, 31.462022, 30.8334
Borhan Nour Primary School, 31.629778, 31.091683
Borqash Preparatory Mixed School, 31.041121, 30.169098
Bosat Preparatory School, 31.435377, 31.164061
Bosat Primary School, 31.435377, 31.164061
Bostan Hares Primary School, 29.928914, 30.980405
Boulaq Preparatory School For Girls, 31.229152, 30.065522
Brembal Old Preparatory School For Boys, 31.733816, 31.161242
Chima Secondary Mixed School, 32.913332, 24.071372
Cleopatra Preparatory School For Girls, 29.9376663, 31.2218965
Commercial School For Boys, 31.436112, 30.172326
Commercial School For Girls, 31.418168, 30.1766204
Dafno Primary School For Boys, 30.806046, 29.24048
Dahmash Sons Primary School, 32.46703, 25.531991
Damanhour Secondary School For Boys, 30.463386, 31.049669
Damas Preparatory School For Girls, 31.32009, 30.809192
Damas Secondary School For Boys, 31.322496, 30.80387
Damas Secondary School For Girls, 31.322476, 30.80467
Damietta Agriculture School, 31.826167, 31.416272
Damietta Preparatory School For Girls, 31.813389, 31.423529
Damietta Secondary Decorative School For Girls, 31.808389, 31.41436
Damietta Secondary Mechanical School For Boys, 31.804578, 31.414353
Damouh Preparatory School, 31.544704, 31.084868
Damouh Primary School, 31.541673, 31.084956
Dandit Preparatory School For Boys, 31.313406, 30.683365
Dandit Preparatory School For Girls, 31.313401, 30.683388
Dandit Secondary School, 31.31173, 30.68443
Daqadous Preparatory School For Boys, 31.265537, 30.726237
Daqahla Preparatory School For Boys, 31.683854, 31.250915
Daqahla Preparatory School For Girls, 31.6838542, 31.2509147
Daqahla Primary School, 31.67985, 31.252841
Dar El Ramad Preparatory School For Girls, 30.850494, 29.318928
Dar El Saada Primary School, 31.2505353, 30.0404271
Dar El Saada Primary School For Girls, 31.315775, 30.1075184
Dar El Safaa Primary School, 29.9143258, 31.1955368
Dar El Salam Primary School, 31.2962195, 30.0865085
Dar El Salam Primary School, 31.621624, 31.324676
Dar El Salam Primary School, 29.931837, 31.1979787
Dar El Tefl Primary School, 31.330963, 30.114558
Dawhat Misr Preparatory School For Girls, 31.252794, 29.57307
Dawoud Pasha Mixed School, 31.2450273, 30.0352386
Dayrout Primary School For Girls, 30.822905, 27.554961
Dayrout Secondary Military School, 30.8034942, 27.5496113
Dayst Primary School, 31.435326, 31.151108
Dayst Secondary School, 31.435474, 31.150858
Degla Primary School, 31.2763001, 29.9570998
Deir Mawas Primary New School, 30.852147, 27.642955
Deir Mawas Secondary School For Boys, 30.853491, 27.642335
Demaira Preparatory School, 31.364188, 31.130149
Demaira Primary School, 31.368316, 31.123561
Demaira Secondary School, 31.378678, 31.136238
Demshelt Secondary School, 31.508937, 31.11191
Denshaway Primary School, 29.837502, 30.976774
Desouq Preparatory School For Girls, 30.6510218, 31.126801
Desouq Secondary School For Girls, 30.6495085, 31.1300315
Deyo El Wosta Preparatory School, 31.503337, 30.899625
Diab Mabrouk Preparatory School, 31.740233, 31.220906
Dikernes Preparatory School For Girls, 31.594266, 31.089841
Dikernes Secondary School For Girls, 31.592194, 31.088596
Dikirnis Secondary Technical School For Girls, 31.582662, 31.091272
Dimashelt Primary School, 31.508451, 31.11135
Dokki Preparatory Ideal School For Boys, 31.210805, 30.039201
Dokki Preparatory School For Girls, 31.217281, 30.037236
Dolcy Secondary Mixed School, 31.159662, 30.079465
Domiat Military Secondary School, 31.8099537, 31.4128713
Domiat Preparatory School For Boys, 31.809409, 31.413418
Dowida Preparatory School, 31.415703, 30.660355
Dr. Abdel Raouf Hassan School, 31.3177728, 29.8407877
Dr. Adly El Sherbiny Preparatory School, 31.326911, 30.803149
Dr. Ahmed Bahgat Secondary School For Boys, 31.146826, 29.9608
Dr. Ahmed Mohamed Taha School, 31.774368, 31.104339
Dr. Ahmed Zewail Preparatory School For Girls, 31.2164551, 30.0832908
Dr. Ahmed Zowail Preparatory School, 29.890237, 31.184738
Dr. Ahmed Zowail Preparatory School For Girls, 31.3958144, 31.0518724
Dr. Ahmed Zowail School, 31.673391, 31.444646
Dr. Aly Mosharafa Preparatory School For Boys, 31.814851, 31.409253
Dr. Aly Mosharafa Secondary School For Boys, 31.673734, 31.447923
Dr. Assem Abdel Haq El Amry Preparatory School, 31.600606, 31.187849
Dr. Diaa El Din Omran School, 31.63305, 30.6128
Dr. Ehab Ismail Secondary School For Boys, 31.113817, 29.073214
Dr. El Sayed El Metwally Primary School, 31.63584, 31.086789
Dr. Farouq El Baz Primary School, 31.434009, 30.866163
Dr. Fouad Mohy El Din Preparatory School For Girls, 30.0161585, 31.2756555
Dr. Gaber Gad Secondary School For Boys, 31.135015, 29.145396
Dr. Gamal El Etify Secondary School For Boys, 31.315125, 27.056127
Dr. Gamal Hemdan Primary School, 29.973646, 31.227897
Dr. Hamdy Abdel Aziz Secondary Mixed School, 31.420287, 30.641226
Dr. Hamdy El Sayed Preparatory School, 31.65038, 31.117934
Dr. Hamdy El Tahery Preparatory School, 31.64383, 31.132966
Dr. Hamed El Zafry Primary School, 31.695728, 31.317577
Dr. Hassan El Oksh Secondary Mixed School, 31.500796, 30.534191
Dr. Hassan Sobhy School, 29.8164147, 31.1257302
Dr. Mahmoud Mostafa Secondary School For Girls, 31.301989, 30.570418
Dr. Mohamed Abdel Wahab Primary School, 29.601341, 30.928329
Dr. Mohamed Fayeq Helmy El Basiony School, 31.733118, 31.156344
Dr. Mohamed Fouad Helmy Preparatory School For Boys, 29.9739807, 31.2387116
Dr. Mohamed Hafez Ghanem Preparatory School For Boys, 29.9890307, 31.2289942
Dr. Mohamed Hassan El Zayyat School, 31.686523, 31.434302
Dr. Mohamed Helal Primary School, 31.286954, 30.732476
Dr. Mohamed Kamel Laila Primary School, 31.339349, 31.046787
Dr. Mohamed Mostafa El Baradaey Preparatory School For Boys, 31.218789, 30.103498
Dr. Mohamed Ragaey El Tahlawy Preparatory School, 30.814874, 27.555358
Dr. Mohamed Ragaey El Tahlawy Primary School, 30.814874, 27.555358
Dr. Mostafa El Gabaly Preparatory School For Boys, 29.802196, 31.005642
Dr. Mostafa Kamal Helmy Preparatory School For Boys, 31.219432, 30.082097
Dr. Mostafa Kamal Helmy Primary School, 31.386952, 30.04749
Dr. Mostafa Mahmoud Younes Secondary School For Girls, 31.320784, 27.047279
Dr. Naaim Abou Taleb Primary School, 29.8290778, 31.0685852
Dr. Nader Riad Preparatory School, 31.235129, 29.501983
Dr. Samira Mousa Secondary School For Girls, 29.779414, 31.112287
Dr. Shafiq El Kheshen Primary School, 29.786261, 30.9869957
Dr. Taha Hussein Primary Mixed School, 31.236219, 30.033713
Dr. Taha Hussein Primary Mixed School, 30.7926835, 31.2717526
Dr. Taha Hussein Primary School, 32.3197389, 31.2359079
Dr. Taha Hussein School, 31.21778, 30.082733
Dr. Taha Hussein Secondary School For Boys, 31.3858151, 31.024508
Dr. Tolba Owaida Preparatory School For Boys, 31.500393, 30.587432
Dr. Youssef Edris Primary School, 29.7892489, 30.9996187
Dr. Zakareya Ibrahim Zaidan Primary School, 31.402187, 31.164543
Dr. Zaky Mubarak School, 31.05784, 30.310141
Edfou Secondary School For Boys, 32.881294, 24.976532
Edkou Preparatory School For Girls, 30.301113, 31.298539
Edkou Secondary School For Boys, 30.293462, 31.294944
EGC, 29.920535, 31.206383
Ehab El Sherif School, 32.2670415, 31.1907424
Eissa El Mosalamy School, 31.507384, 30.519825
Eissa Hamdy Primary School, 31.399076, 30.922821
Ekhnatoun Primary School, 29.9889018, 31.2300963
El Aashy Preparatory School, 32.732048, 25.771451
El Aashy Secondary Mixed School, 32.731125, 25.771992
El Aateyat Primary Mixed School, 31.294035, 29.737775
El Abaadeya New Primary School, 31.157918, 30.142063
El Ababda Primary School, 32.493642, 25.539491
El Abbaseya 1 School, 31.639431, 31.3904
El Abbaseya 2 Primary School, 31.641851, 31.392328
El Abbaseya Preparatory School For Girls, 31.27572, 30.063684
El Abbaseya Secondary Military School For Boys, 29.912953, 31.192461
El Abbaseya Secondary School For Girls, 31.282748, 30.071171
El Abbasseya Electrical School, 31.279031, 30.0673263
El Abbasseya Secondary Decorative School For Boys, 31.2824535, 30.0614126
El Abbasseya Secondary School For Mechanical Works, 31.279219, 30.067172
El Abbasy Primary School, 32.258675, 30.584971
El Abtal Preparatory School, 31.226728, 29.488704
El Adab Primary School For Boys, 31.3114938, 30.1050028
El Adawy Primary School, 31.258329, 30.050799
El Adayma Mixed School, 31.59926, 26.695905
El Adleya Primary School, 31.761766, 31.393887
El Agaizy Primary Mixed School, 30.995012, 30.7740776
El Agami Secondary School For Girls, 29.784949, 31.120404
El Agouza Preparatory Mixed School, 31.214295, 30.054543
El Agouza Secondary School For Girls, 31.212891, 30.057576
El Ahd El Gadid Preparatory School, 31.600765, 31.141198
El Ahd El Gadid Primary Mixed School, 31.2436071, 30.077753
El Ahd El Gadid Primary School, 31.508532, 31.111373
El Ahd El Gadid Primary School, 31.841616, 31.515571
El Ahd El Gadid Primary School, 29.916941, 31.189196
El Ahd El Gadid Primary School, 31.312945, 30.683425
El Ahd El Gadid Secondary School, 31.421333, 30.162651
El Ahd El Monir Mixed School, 31.212641, 30.0128145
El Ahmadeya Preparatory School For Boys, 30.9944124, 30.7903167
El Ahram School, 31.113187, 29.988374
El Ahrar Primary School, 31.495566, 30.569587
El Aioubeya Preparatory School For Girls, 31.3801972, 31.0409362
El Akkad Primary School, 31.3048981, 30.1174846
El Akkad Primary School For Boys, 31.1909178, 30.0454087
El Akkad Secondary School For Boys, 32.896848, 24.092059
El Alf Maskan Primary Mixed School, 29.8750958, 31.1611676
El Alfy Preparatory School For Boys, 31.345356, 30.510955
El Alieya Primary School, 30.0639072, 31.3225951
El Amal Mixed School, 32.5113156, 29.9776436
El Amal Preparatory School For Girls, 32.5106289, 29.9779689
El Amal Primary School, 31.3383937, 29.8453353
El Amal Primary School, 33.618186, 28.244041
El Amal Primary School, 31.111829, 30.034289
El Amal Technical Secondary School, 31.3384312, 29.844528
El Aman Primary School, 29.8711958, 31.1668894
El Amereya Primary School, 29.8025574, 31.011905
El Amin Primary School, 32.281255, 31.255248
El Amir Loualoa Primary Mixed School, 29.8749457, 31.163958
El Amir Talal Ibn Abdel Aziz School, 31.3460648, 29.8424842
El Amrawy Primary School, 30.0219011, 31.2620673
El Amreya Preparatory School For Girls, 29.8033715, 31.0047913
El Amreya Primary Mixed School, 31.240485, 30.0788125
El Amreya Secondary School For Girls, 29.79983, 31.018129
El Ananeya Preparatory School, 31.358698, 30.816218
El Ananeya Preparatory School For Girls, 31.011975, 30.781365
El Ananeya Primary School, 31.357453, 30.816243
El Ananeya Primary School, 31.812404, 31.384774
El Ananeya Secondary School, 31.359803, 30.817065
El Andalus & El Hegaz Primary Mixed School, 29.9998086, 31.2623364
El Andalus Primary Mixed School, 31.3905814, 31.043787
El Andalus Primary School, 31.2835747, 30.0679577
El Andalus School For Girls, 31.209846, 30.00965
El Anfoushi Primary School, 29.8774534, 31.2093008
El Anfoushi Primary School Girls, 29.8774534, 31.2093008
El Anfoushi Secondary School For Boys, 29.882357, 31.208631
El Ansary Primary School, 32.5539949, 29.9728178
El Ansary Primary School, 31.717288, 31.330218
El Anwareya Primary School, 31.2703, 29.949682
El Aqalta Preparatory School, 32.611992, 25.681055
El Aqalta Primary School, 32.611987, 25.683569
El Aqbat El Kobra Secondary School, 31.242236, 30.060899
El Aqbat Preparatory School For Girls, 30.9945453, 30.7880206
El Aqbat Primary Mixed School, 31.2485397, 30.06775
El Aqbat Primary School For Girls, 30.816404, 27.552625
El Aqid Aly El Masry School, 29.9972154, 31.2626473
El Aqid Satea El Noamany School For Girls, 31.193876, 30.021753
El Arbaeen School, 31.715056, 31.253992
El Arish Secondary School For Boys, 33.800245, 31.134112
El Arish Secondary School For Girls, 33.806804, 31.128573
El Ashraf Primary Mixed School, 31.2443636, 30.085187
El Ashraf Primary School, 31.227972, 30.021643
El Aslougy School, 31.5155, 30.555836
El Aslougy School 2, 31.516312, 30.556027
El Asr El Hadith Primary School, 29.979841, 31.251295
El Assara Preparatory School, 32.733486, 25.795346
El Assara Primary School, 32.732048, 25.793593
El Atalat Primary Mixed School, 32.493868, 25.394363
El Athareya School, 31.564236, 30.611826
El Attar Primary Mixed School, 31.2493, 30.071
El Attareen Preparatory School For Boys, 29.905995, 31.194724
El Attareen Preparatory School For Girls, 29.9037074, 31.1898179
El Attareen Primary School, 29.9051898, 31.1943149
El Awamer School, 31.758978, 31.419947
El Awameya Preparatory Mixed School, 32.639362, 25.680944
El Awameya Primary School, 32.634931, 25.681292
El Awamy Primary School, 29.6964017, 31.0704177
El Awqaf Preparatory School For Girls, 31.193306, 30.054332
El Awqaf Secondary School For Girls, 31.194692, 30.055251
El Awqaf Secondary School For Girls, 31.193999, 30.054971
El Ayyat Primary School, 31.257176, 29.618777
El Azaem Primary School, 29.6220159, 31.0037754
El Azawy Primary School, 31.4749745, 30.8219784
El Azazna Preparatory School, 31.554877, 31.120099
El Azazna Primary School, 31.554274, 31.120383
El Azbakeya Preparatory School, 31.2443421, 30.0610184
El Azhar Primary Mixed School, 31.25694, 29.963254
El Azhar Primary Mixed School, 31.2437654, 30.0865738
El Azhar Primary Mixed School, 31.197154, 30.059437
El Azhar Primary School, 31.243891, 30.086642
El Aziz Bellah Primary School, 31.309458, 30.1028054
El Aziz Bellah Secondary School For Girls, 31.309349, 30.102775
El Azizeya Preparatory School, 31.250353, 29.875048
El Azza Preparatory School For Boys, 31.2435219, 30.0802298
El Azzawy Preparatory School, 31.474784, 30.821741
El Bab El Akhdar Primary School, 29.886581, 31.1933815
El Badadra Primary School, 32.662514, 25.669181
El Badary Preparatory School For Boys, 31.41382, 26.990929
El Badrasheen Preparatory School For Girls, 31.263302, 29.88956
El Badrasheen Secondary School For Girls, 31.2758531, 29.8475248
El Badrawy Preparatory School For Boys, 31.2427837, 30.9635322
El Badry Habater School, 32.558595, 25.28356
El Bagour Secondary Mixed School, 31.034635, 30.432074
El Baheya El Borhaneya Preparatory School For Girls, 31.249697, 30.037765
El Bahr El Motawaset Secondary School For Girls, 29.951942, 31.210939
El Bahr El Saghir Model School, 31.3927354, 31.0490138
El Bahr El Saghir Primary School, 31.5998271, 31.088029
El Bakareya Preparatory School, 31.4830398, 30.8359774
El Bakareya Primary School, 31.4824216, 30.8356751
El Bakatoush Primary School, 30.011872, 31.220153
El Balamoun Preparatory School, 31.4339473, 30.8231978
El Balamoun Primary School, 31.433958, 30.822622
El Balamoun Secondary School, 31.43457, 30.822693
El Ballashoun Secondary Mixed School, 31.440381, 30.436154
El Bandaira Primary School, 31.511118, 31.147961
El Bangar 3 Primary School, 29.77679, 30.7893038
El Bangar 7 Primary School, 29.7895251, 30.8319214
El Bank School, 31.572239, 31.360087
El Baraem El Motafateha Primary School, 29.5511735, 30.9020636
El Baragil Mixed School, 31.181366, 30.069697
El Baramoun Preparatory School, 31.443526, 31.121394
El Baramoun Primary School, 31.445457, 31.118928
El Baramoun Secondary School, 31.449174, 31.105462
El Barghouty Primary Mixed School, 31.223692, 29.473271
El Basarta School, 31.801836, 31.382585
El Basateen Preparatory School, 31.745553, 31.3822
El Basateen Preparatory School For Girls, 31.269161, 29.989203
El Basateen Primary School, 31.746441, 31.383865
El Basra Primary School, 29.7777716, 30.8831945
El Batal Abdel Aal Helmy School, 31.5356, 30.609605
El Batal Ahmed Abdel Aziz School, 31.581429, 30.575152
El Batal Aly Othman Preparatory School For Boys, 31.700892, 26.55262
El Baweety Secondary Mixed School, 28.86935, 28.348079
El Bawity Primary School, 28.861417, 28.348815
El Bayadeya Preparatory School For Girls, 32.632581, 25.664457
El Bayadeya Primary Mixed School, 32.636175, 25.66701
El Bayoum Primary School, 31.383895, 30.6246
El Bayoumi Primary School, 31.264916, 30.059996
El Beledah School, 31.276464, 29.6759
El Bergas Primary School, 31.4565074, 30.8821056
El Beshniny School, 31.485626, 30.817745
El Beshry Primary School, 31.314076, 30.115349
El Billina Primary School, 32.002601, 26.232175
El Birouny School, 29.7410149, 31.070173
El Bitash Preparatory School For Girls, 29.785163, 31.120073
El Bitash Primary School, 29.7861028, 31.1216796
El Boghdady Preparatory School, 32.605047, 25.636329
El Boghdady Primary Mixed School, 32.605047, 25.636329
El Boroug Primary School, 32.49449, 25.55066
El Bosaileya Secondary School, 32.729665, 25.14384
El Bostan Primary School, 29.959928, 31.237385
El Bostan Primary School, 31.46501, 30.882739
El Bouha Preparatory School For Boys, 31.325264, 30.765642
El Bouha Primary School, 31.325133, 30.765421
El Canal Preparatory School For Boys, 32.306709, 31.267929
El Canal Preparatory School For Girls, 32.30184, 31.269324
El Canal Primary Mixed School, 32.5589404, 29.96259
El Canal Primary School, 31.458642, 30.878077
El Canal Secondary School For Boys, 32.283442, 31.255358
El Dabaaeya Preparatory School For Boys, 32.589682, 25.645076
El Dabaaeya Preparatory School For Girls, 32.589422, 25.644162
El Dabaaeya Primary School, 32.590714, 25.640293
El Dabaaeya Secondary Mixed School, 32.281678, 30.529886
El Dababeya School, 32.508318, 25.489802
El Dabouneya Preparatory School, 31.319213, 30.663361
El Dabouneya Primary School, 31.319463, 30.66622
El Dafraw Primary School, 30.670346, 31.048793
El Dahra Secondary School, 31.763878, 31.352854
El Danabiq Primary School, 31.4519, 31.054055
El Danabiq School, 31.451803, 31.053963
El Danabiq Secondary School, 31.444373, 31.05167
El Daqira Preparatory School, 32.620755, 25.221887
El Deeba School, 32.0675093, 31.3565836
El Deir Modern School, 32.592721, 25.33174
El Dekheila El Gadida Primary School, 29.8175771, 31.1357024
El Dekheila Preparatory School For Boys, 29.8176966, 31.133137
El Dekheila Preparatory School For Girls, 29.816792, 31.1332335
El Dekheila Primary School, 29.819688, 31.1353052
El Demerdash Primary Mixed School, 31.2757117, 30.0709463
El Dimoqrat Primary Mixed School, 32.463194, 25.565836
El Disa Primary School, 31.779172, 31.081551
El Dowaikat Preparatory Mixed School, 32.638908, 25.644041
El Dowaikat Primary Mixed School, 32.639437, 25.643693
El Drakseya Primary School, 31.703512, 31.087225
El Edrisy Preparatory School For Boys, 29.7639108, 31.0928502
El Egtehad Secondary School For Girls, 31.2498325, 30.0155713
El Ekhlas Preparatory School For Boys, 29.879025, 31.168307
El Ekhlas Preparatory School For Boys, 29.8783198, 31.1697615
El Ekhlas Secondary School For Boys, 29.8805621, 31.1699267
El Elm & El Iman Primary School, 29.972262, 31.237839
El Elweya School, 31.60566, 30.584708
El Emam Abdel Halim Mahmoud School, 29.9905937, 31.2204322
El Emam Ali Primary School, 29.914928, 31.192576
El Emam Aly Ibn Abi Taleb Primary Mixed School, 31.18628, 27.177175
El Emam Aly Ibn Abi Taleb Primary School, 31.668375, 31.164575
El Emam Aly Ibn Abi Taleb Secondary Mixed School, 32.502805, 25.515721
El Emam Aly Primary Mixed School, 31.2696105, 30.0510874
El Emam Aly Primary School, 31.216967, 30.045893
El Emam Aly Primary School, 32.280594, 30.607112
El Emam Aly School, 32.576973, 25.332952
El Emam El Adel Primary School, 29.9932125, 31.209369
El Emam El Ghazaly Primary School, 31.2894546, 30.1080575
El Emam El Hussein Primary School, 32.277896, 31.253332
El Emam El Shaarawy Primary School, 32.514188, 25.592555
El Emam El Shafaey Primary School, 31.267361, 30.009684
El Emam El Shafaey Primary School, 29.932212, 31.2012575
El Emam El Shafaey Primary School, 32.5502107, 29.9673697
El Emam El Shafaey Primary School, 31.355152, 31.098098
El Emam El Shafaey Primary School, 31.266423, 30.711761
El Emam Malek Primary School, 29.9014935, 31.1905616
El Emam Mohamed Abdou Preparatory School, 31.811701, 31.410063
El Emam Mohamed Abdou Preparatory School For Boys, 31.175125, 27.182212
El Emam Mohamed Abdou Primary School, 31.2636187, 30.0575882
El Emam Mohamed Abdou Primary School, 31.249204, 30.099875
El Emam Mohamed Abdou Primary School, 31.313138, 30.683425
El Emam Mohamed Abdou Primary School, 31.1804652, 30.4696473
El Emam Mohamed Abdou Primary School, 31.811519, 31.410672
El Emam Mohamed Abdou Primary School, 32.2799483, 31.2496467
El Emam Mohamed Abdou Primary School, 31.1717266, 30.9780622
El Emam Mohamed Abdou School, 31.250353, 29.875048
El Emam Mohamed Metwally El Shaarawy Preparatory School For Boys, 31.1806999, 30.4716701
El Emam Mohamed Metwally El Shaarawy Primary School, 31.3679771, 31.0393138
El Emam Nassef Secondary School For Girls, 31.635468, 31.208354
El Eman Primary Mixed School, 31.1806637, 27.2006888
El Eman Primary School, 30.1350125, 31.1320679
El Eman Primary School, 32.5290718, 29.981412
El Eman School, 31.1645412, 29.9937403
El Engileya Preparatory School For Girls, 30.756818, 28.095644
El Entelaq Secondary Mixed School, 29.8461359, 31.0718754
El Entesar Primary School, 31.49118, 31.105893
El Eqbal Schools Complex, 29.974549, 31.170901
El Eskandarany Elementary Mixed School, 29.911027, 31.191064
El Eslah Mixed School, 30.0345195, 31.2592013
El Eslah Primary School, 31.685654, 31.371795
El Esraa Preparatory School For Girls, 31.2545372, 29.9643529
El Esteqlal Primary School, 29.9044879, 31.1906335
El Ethad El Kawmy Primary School For Boys, 31.2532817, 30.0774431
El Ethad El Qawmy Preparatory School, 31.2370436, 30.0501995
El Ethad El Watany Preparatory School For Boys, 31.232331, 30.06648
El Ethad Preparatory School For Girls, 31.222576, 30.085193
El Ethad Primary School, 31.31839, 30.62448
El Ethad Primary School, 29.926275, 31.198878
El Ethad Primary School, 31.22212, 30.085248
El Ethad School, 31.501729, 30.638032
El Ethad School, 31.756572, 31.106826
El Ezza Preparatory Mixed School, 29.8540806, 30.9433302
El Ezza Primary School, 29.8558133, 30.9441262
El Fadila Primary School, 29.964592, 31.22455
El Fadila Private Schools, 31.138687, 30.124621
El Fagr El Gadid Primary School, 31.2169755, 30.0906107
El Falaky Preparatory School, 31.239042, 30.043102
El Falouga Primary School, 29.9830472, 31.2266225
El Fanar Primary School, 29.9371518, 30.9868146
El Fanar Primary School, 29.8761099, 31.2027214
El Fanar Primary School For Boys, 31.8371, 31.503282
El Fardous Primary Mixed School, 29.908867, 31.193325
El Fariq Saad El Din Sherif Secondary Mixed School, 31.282401, 30.640627
El Farma Primary School, 32.29968, 31.2611823
El Farouq Omar Ibn El Khattab Primary School, 31.815062, 31.409624
El Farouq Omar Ibn El Khattab Secondary School For Boys, 32.2812544, 30.6126315
El Farouq Omar Preparatory School For Boys, 31.2533193, 30.0606384
El Farouq Omar Primary School, 32.28076, 30.612915
El Farouq Omar Primary School, 31.213961, 29.999507
El Farouq Omar Schools, 31.310536, 30.162174
El Farouq Omar Secondary Mixed School, 31.181291, 30.0698
El Farouq Preparatory School For Girls, 30.001631, 31.262443
El Fateh Primary School, 32.2824481, 31.2692548
El Fath Preparatory Mixed School, 28.979874, 25.48329
El Fath Primary School, 31.280449, 30.080268
El Fath Primary School, 31.2066516, 30.0095188
El Fath Primary School, 32.258541, 30.585809
El Fath School, 32.2247243, 30.9798259
El Fath School, 31.5200329, 30.8670152
El Fawzeya Preparatory School For Girls, 29.8971891, 31.1770962
El Fayoum Preparatory Modern School For Boys, 30.845315, 29.306193
El Fayrouz Preparatory School For Girls, 31.2570905, 29.9564612
El Forsan Primary School, 29.849923, 30.851123
El Fostat Primary School, 31.2370182, 30.01181
El Fostat Secondary School For Boys, 31.2281495, 30.011299
El Fotouh El Islameya Primary School, 29.7700202, 31.0973119
El Gabalain School, 32.489759, 25.486815
El Gabalayat Preparatory School For Boys, 32.544048, 29.995307
El Gabarty Preparatory School For Boys, 31.254234, 29.967609
El Gabry School, 31.251933, 29.859294
El Galaa Primary Mixed School, 31.175792, 27.182031
El Galaa Primary Mixed School, 32.27082, 30.599281
El Galaa Primary School, 31.296986, 30.729814
El Galaa Primary School, 32.2905578, 31.2639898
El Galaa Primary School, 31.81127, 31.413524
El Galaa School, 29.873734, 31.168842
El Galayla Preparatory School, 31.501054, 30.834865
El Galayla Primary School, 31.5014371, 30.8351621
El Galayla Secondary School, 31.5016839, 30.8347614
El Gamaa El Arabeya Primary School, 29.975496, 31.2420625
El Gamaa El Islameya Preparatory School For Boys, 31.3106033, 30.1026465
El Gamaeya El Khaireya El Islameya School, 31.2503207, 30.0382492
El Gamaeya Preparatory School For Boys, 31.1668382, 30.9798731
El Gamala School, 31.243639, 29.569776
El Gamaleya Primary School, 31.2638605, 30.0513975
El Gamaleya Primary School, 31.2638417, 30.0514161
El Gawahra Primary School, 31.80999, 31.449589
El Gazaer Primary School, 31.31173, 30.1093126
El Gazaer Primary School, 29.8392454, 30.9453362
El Gazaer Primary School, 29.9079367, 31.1834044
El Geel El Gadid Primary School, 29.9676105, 30.9785301
El Geel Primary Mixed School, 31.2419629, 30.0877933
El Gehad Primary Mixed School, 31.216849, 30.090579
El Gehad Primary School, 31.400648, 31.078188
El Gehad Primary School, 31.420393, 26.994952
El Gehad Primary School, 31.002019, 30.794508
El Gehad Primary School, 31.437067, 30.718918
El Gehad Primary School, 31.363027, 30.60268
El Gehad School, 31.235129, 29.501983
El Genina Preparatory School, 31.694017, 31.107432
El Genina Primary School, 31.690675, 31.105733
El Genina Primary School, 31.458602, 30.879958
El Gerby Preparatory School, 31.830997, 31.504311
El Gerby Secondary School, 31.833041, 31.508926
El Gezirah Preparatory School, 31.528431, 31.084409
El Gezirah Primary School, 31.830971, 31.059184
El Ghamry Primary School, 31.292112, 30.671408
El Ghar New School, 31.532414, 30.559619
El Ghar Preparatory School For Boys, 31.534801, 30.559298
El Ghar Preparatory School For Girls, 31.535485, 30.559524
El Gharbaneyat Primary School, 29.4986987, 30.8816429
El Gharby Qamoula Preparatory School, 32.720574, 25.79568
El Gharby Qamoula Primary School, 32.722253, 25.795197
El Gharira Mixed School, 32.469032, 25.503237
El Gharz Primary Mixed School, 32.52503, 25.636729
El Ghawabin Preparatory School, 31.762888, 31.330502
El Ghawabin Primary School, 31.763323, 31.330339
El Ghayaty Preparatory School For Girls, 31.813992, 31.407971
El Gihad Primary School, 31.3106892, 30.1153873
El Giza Preparatory School For Girls, 31.196743, 30.067609
El Gomhoureya Primary Mixed School, 31.2479202, 30.0975504
El Gomhoureya Primary Mixed School, 31.635909, 31.20898
El Gomhoureya Primary School, 31.2571924, 29.9562567
El Gomhoureya Primary School, 31.348876, 30.720645
El Gomrok Primary School, 29.8848385, 31.1934307
El Gorouf School, 32.458951, 25.577034
El Gowaira Primary School, 29.4758087, 30.8684069
El Haboun Primary School, 29.4657772, 30.8596498
El Hadaeq Elementary School, 29.913464, 31.185711
El Hadaeq Preparatory School For Boys, 30.1250535, 31.1417195
El Hadara Preparatory School, 29.8759248, 31.0156841
El Hadara Preparatory School For Girls, 29.930441, 31.196071
El Hadara Primary School, 29.912521, 31.037261
El Hadid & El Solb Preparatory School For Boys, 31.302425, 29.789658
El Hadid & El Solb Secondary School For Girls, 31.302135, 29.784492
El Hadidy & El Nady Preparatory School For Girls, 32.2861818, 31.2519305
El Hadidy Primary School, 31.715807, 31.331744
El Hadith Preparatory School For Girls, 30.458875, 31.036085
El Hadra Preparatory School For Boys, 29.930298, 31.196228
El Hadra Primary School, 29.9299764, 31.19582
El Hagayza Preparatory School, 31.588397, 30.847071
El Hagayza Primary School, 31.589052, 30.847948
El Hagayza Primary School, 32.2234637, 31.072715
El Hagby Primary School, 31.265786, 30.733241
El Hager Primary School, 30.912821, 30.2825878
El Haj Hussein Hammad Secondary School For Girls, 31.591948, 31.093358
El Haj Omran Primary School, 31.629538, 31.088856
El Haj Sayed El Bayoumi Secondary School, 31.723457, 31.070784
El Haja Aziza El Sayed Primary School, 31.529265, 30.886069
El Hakemeya Primary School, 31.328563, 30.619101
El Halila Preparatory School, 32.585342, 25.294041
El Hamidat Sharq School, 32.573583, 25.395773
El Hamideya Preparatory School, 31.724345, 31.15216
El Hammam Secondary School For Boys, 29.369551, 30.844283
El Hamraa Preparatory School For Girls, 31.1969554, 27.1794135
El Hamraa Preparatory Vocational School For Girls, 31.1951369, 27.183169
El Hanafy Primary School For Girls, 31.2437872, 30.0349316
El Haram Preparatory School For Girls, 31.2003994, 30.0094118
El Haram Secondary School For Girls, 31.154099, 29.992905
El Haramain Secondary School For Girls, 30.016097, 31.279218
El Haramsha Primary School, 32.683365, 25.76378
El Hasaya Secondary Mixed School, 32.86209, 24.875302
El Hasayna Preparatory School, 31.501933, 30.908977
El Hasayna Primary School, 31.50089, 30.908636
El Hashimeya Preparatory School For Boys, 31.2476035, 30.0838487
El Hassan Ibn Aly Preparatory Mixed School, 29.8425847, 31.0162927
El Hassan Ibn El Haitham Primary School, 29.8061523, 31.0091504
El Haswa Primary School, 31.57203, 30.889014
El Hawal Technical School For Girls, 31.465514, 30.885726
El Hawamdeya Preparatory Mixed School, 31.267202, 29.896508
El Hawamdeya Preparatory School For Girls, 31.273425, 29.894731
El Hawamdeya Primary School, 31.265067, 29.892983
El Hawareya Primary School, 29.6762542, 30.9614872
El Hawwal Preparatory School For Girls, 31.463353, 30.888224
El Hawwal Primary Mixed School, 31.465024, 30.88636
El Hawza Primary Mixed School, 32.47182, 25.625677
El Hedaya Primary School, 31.286402, 30.638484
El Hekma Primary Mixed School, 31.2375265, 30.0852973
El Hekma Secondary School For Girls, 30.9926569, 30.7788356
El Helmeya El Gadida School, 31.2494543, 30.0362755
El Helmeya Secondary School For Girls, 31.249344, 30.035885
El Hennawy Preparatory School For Boys, 31.511976, 30.582214
El Hennawy Preparatory School For Girls, 31.51112, 30.582228
El Hennawy School, 31.512045, 30.582047
El Hobail Preparatory School, 32.657236, 25.646672
El Hobail Primary Mixed School, 32.656844, 25.64679
El Hoda Primary School, 31.828857, 31.466785
El Holla Preparatory School, 32.579412, 25.282869
El Holla Secondary Mixed School, 32.579412, 25.282869
El Horreya El Gadida Primary School, 30.0750518, 30.8888776
El Horreya Preparatory School, 31.2409973, 30.0588465
El Horreya Preparatory School, 31.750531, 31.124268
El Horreya Preparatory School For Boys, 31.327425, 30.119575
El Horreya Preparatory School For Girls, 32.547667, 29.970099
El Horreya Primary Mixed School, 31.178135, 30.974519
El Horreya Primary Mixed School, 31.208374, 29.97045
El Horreya Primary School, 31.328331, 30.118002
El Horreya Primary School, 31.736165, 31.16135
El Horreya Primary School, 32.640502, 25.69313
El Horreya Primary School, 32.731377, 25.771441
El Horreya Primary School, 31.2181771, 30.0826085
El Horreya Primary School, 31.4010588, 31.0562611
El Horreya Primary School, 31.477408, 31.034053
El Horreya Primary School, 32.509521, 25.605027
El Horreya Primary School, 32.501421, 25.593349
El Horreya Primary School, 29.8819247, 30.8765991
El Horreya Primary School, 31.750177, 31.124916
El Horreya Primary School, 31.284747, 30.777513
El Horreya Primary School, 31.509202, 30.596562
El Horreya School, 31.174693, 30.016471
El Horreya Secondary School For Girls, 31.508543, 30.588591
El Hosaneya New Primary School, 31.500753, 30.577741
El Hosaneya Preparatory School For Boys, 31.500552, 30.577508
El Hosaneya Preparatory School For Girls, 31.500635, 30.577593
El Hourany School, 31.739041, 31.379013
El Hoyaty Secondary School For Girls, 31.2379771, 30.0423213
El Hussein Ibn Aly Preparatory School For Boys, 29.8425774, 31.0163391
El Hussein Ibn Aly Primary School, 29.7976228, 31.0168685
El Hussein Ibn Aly Primary School, 30.976541, 30.29335
El Hussein Preparatory School For Boys, 31.2630263, 30.0490027
El Hussein Primary School, 30.460884, 31.038177
El Husseinat Primary School, 32.556683, 25.583041
El Husseineya Preparatory Mixed School, 31.017255, 30.551304
El Husseineya Preparatory School For Boys, 31.278, 30.0687
El Husseineya Preparatory School For Boys, 30.008855, 31.172383
El Husseineya Preparatory School For Girls, 31.914257, 30.860408
El Husseineya Primary School, 31.663418, 31.366422
El Husseineya Secondary School For Boys, 31.274476, 30.065631
El Husseineya Secondary School For Girls, 31.914607, 30.858782
El Husseiny Abdel Malek 1 Primary School, 31.427411, 31.09853
El Husseiny Abdel Malek 2 Primary School, 31.427411, 31.09853
El Husseiny Sultan Preparatory School, 31.758213, 31.391574
El Ibrahimeya El Qebleya School, 31.619972, 31.376979
El Ibrahimeya Marine School, 31.619613, 31.393781
El Ibrahimeya Preparatory School For Girls, 29.936551, 31.211722
El Ibrahimeya Secondary School For Boys, 31.2320387, 30.0343156
El Islam Primary Mixed School, 29.872711, 31.160959
El Ismaileya School, 31.68538, 31.371882
El Ismaileya Secondary School For Boys, 32.2900615, 30.6117301
El Ismaileya Secondary School For Girls, 32.267798, 30.58873
El Juhainat Preparatory School, 32.509301, 25.308698
El Kab School, 32.3096192, 30.9500082
El Kabbari Preparatory School For Girls, 29.882075, 31.173592
El Kafrawy Preparatory School, 31.685514, 31.443813
El Kamal Mixed School, 31.277596, 29.9403834
El Kamal Primary Model School, 31.3149621, 30.0910654
El Kamal Primary School, 31.257796, 30.042922
El Kamal Primary School, 31.435377, 31.164061
El Karama Primary School, 31.261231, 30.715944
El Karama Secondary School For Girls, 31.182053, 30.052222
El Karnak Preparatory School For Boys, 32.659096, 25.724961
El Karnak Primary Mixed School, 31.1837264, 30.0149756
El Karnak Primary School, 32.658754, 25.72449
El Kasr Preparatory Mixed School, 28.854791, 28.343433
El Kasr Primary Mixed School, 28.855274, 28.344141
El Kawakeb Primary School, 31.320996, 30.094695
El Kawthar Primary Mixed School, 34.121845, 31.215288
El Khabiry Preparatory School For Girls, 31.2548724, 29.9637661
El Khaireya Islamic Preparatory School For Boys, 31.097155, 29.073354
El Khaledin Primary School, 29.92885, 31.198449
El Khaledin School, 29.8562479, 31.0069212
El Khalifa El Maamoun Primary School, 31.313111, 30.715146
El Khalifa El Maamoun School, 32.5444973, 29.9852942
El Khalileya Primary School, 32.5508822, 29.9720638
El Khanka Secondary School For Girls, 31.360473, 30.224055
El Khansaa Preparatory School For Girls, 29.944062, 31.211885
El Khansaa Primary School, 32.266953, 31.2696767
El Khansaa Secondary School For Girls, 31.406801, 30.169103
El Khawaled Primary School, 32.489555, 25.539449
El Khayareya Primary School, 31.4193, 31.084473
El Khayyat Preparatory School For Girls, 31.185658, 27.1771122
El Khayyat Secondary School For Girls, 31.185652, 27.177113
El Khayyata School, 31.819561, 31.461761
El Khazendar Primary School, 31.2514632, 30.0521497
El Khedaiweya Secondary School For Boys, 31.249788, 30.037106
El Khedaiwy Ismail Secondary School For Boys, 31.238795, 30.035602
El Khodairy Preparatory School, 31.780363, 31.211962
El Khodairy Primary School, 31.779113, 31.215178
El Kholafaa El Rashedin Preparatory Boys School, 32.322781, 31.246708
El Kholafaa El Rashedin Preparatory Mixed School, 32.3025432, 30.6112903
El Kholafaa El Rashedin Preparatory School For Boys, 31.3002449, 29.8897737
El Kholafaa El Rashedin Primary Mixed School, 31.200086, 30.012429
El Kholafaa El Rashedin Primary School, 31.3016664, 29.8898307
El Kholafaa El Rashedin Primary School, 31.42019, 30.170359
El Kholafaa El Rashedin Primary School, 31.320192, 30.764278
El Kholafaa El Rashedin Primary School, 29.929296, 31.191962
El Kholafaa El Rashedin School, 32.525778, 25.43144
El Kholafaa Preparatory School For Boys, 31.311704, 30.089629
El Kholafaa Primary Mixed School, 31.382809, 26.966297
El Khotabaa El Gadida Primary School, 32.650522, 25.683775
El Kobba El Fedaweya Primary School, 31.2801817, 30.0685264
El Kohail Preparatory School, 31.732598, 31.382814
El Kohail Primary School, 31.732724, 31.383109
El Koramaa School, 31.610675, 31.060402
El Kordy Preparatory School, 31.764251, 31.174046
El Kordy Primary School, 31.764457, 31.173824
El Kordy School For Primary Education, 31.768622, 31.162972
El Kordy Secondary Mixed School, 31.764634, 31.164513
El Koum El Ahmar & Youssef El Sebaey Primary School, 31.1703505, 30.1129814
El Koum El Ahmar Primary School, 32.500718, 25.439782
El Koum El Akhdar Primary Ideal Mixed School, 31.157012, 29.991306
El Labban Preparatory School, 29.890317, 31.190496
El Lesht School, 31.250063, 29.56672
El Lewaa Amin El Sherif Profession School, 31.2517502, 30.0436589
El Lewaa Ibrahim Radwan Primary School, 31.864981, 31.174394
El Lewaa Mohamed Abdel Halim Preparatory Mixed School, 31.193962, 27.169599
El Lewaa Mohamed Fawzy Moaz Preparatory School For Girls, 29.933486, 31.20617
El Lewaa Mohamed Naguib Preparatory School For Boys, 31.2170693, 30.0733293
El Lewaa Saad El Sherbiny Preparatory School, 31.65704, 31.184113
El Lewaa Saad El Sherbiny Primary School, 31.625264, 31.168458
El Lewaa Samy Asaad Primary School, 31.648979, 30.541477
El Louzy Preparatory School, 31.710247, 31.368813
El Louzy Secondary School For Girls, 31.8114442, 31.4132382
El Maadi El Gadida Preparatory School, 31.2611112, 29.9584645
El Maadi El Gadida Preparatory School For Boys, 31.2668819, 29.972611
El Maadi El Khabiry School, 31.2545451, 29.9637383
El Maadi El Sharqeya Primary School, 31.257085, 29.963313
El Maadi Preparatory School For Boys, 31.258314, 29.962222
El Maadi Secondary School For Boys, 31.2543061, 29.9666487
El Maadi Secondary School For Girls, 31.257028, 29.955742
El Maahad El Elmy Preparatory School For Boys, 31.246106, 30.023934
El Maalla School, 32.519247, 25.474031
El Maamal Preparatory School For Girls, 32.5675625, 29.9441979
El Maamoun Hoteling Secondary School, 31.27921, 30.067992
El Maamoureya Primary School, 31.623293, 31.362872
El Maaref El Masreya Primary School, 31.262047, 30.070678
El Maaref Primary School, 29.9726986, 31.2403989
El Maasara El Bahareya Primary School, 31.2952235, 29.9125605
El Maasara El Balad Primary School, 31.2865574, 29.9054168
El Maasara El Mahatta Primary School, 31.3014352, 29.9050323
El Maasara Preparatory School For Boys, 31.3060808, 29.902949
El Maasara Secondary School For Girls, 31.302049, 29.909394
El Madamoud Primary School, 32.725812, 25.727004
El Madbouly Primary School, 31.809437, 31.424438
El Madina El Gamaeya Primary Mixed School, 31.207628, 30.035267
El Madina El Monawara Primary School, 32.278304, 31.2524657
El Mafrouza Primary Mixed School, 29.876338, 31.1748657
El Mahaba Preparatory School For Girls, 31.258083, 30.0640221
El Mahalla El Kobra Preparatory School For Boys, 31.1794326, 30.9760959
El Mahalla El Raqya Primary School, 31.1742049, 30.9824383
El Mahamid Bahary Preparatory School, 32.461646, 25.55617
El Mahamid Bahary Primary School, 32.461284, 25.55821
El Mahasna Preparatory School, 31.755914, 31.068705
El Mahasna Primary School, 31.756126, 31.068852
El Mahatta Primary School, 32.0945182, 26.1183077
El Mahidat Primary School, 32.481528, 25.564063
El Mahmasa Secondary Mixed School, 32.038321, 30.557109
El Mahmoudeya Primary School, 31.706151, 31.075602
El Mahmoudeya Secondary School For Boys, 29.919055, 31.195123
El Mahrousa Primary School, 29.9848517, 31.2310844
El Makhzan Preparatory School, 31.4523902, 30.9482979
El Makhzan Primary School, 31.4521971, 30.9495125
El Makmoura Modern Preparatory School, 30.1164141, 31.151549
El Makrezy Primary School, 31.3009, 30.0869
El Malek El Kamel Secondary School For Boys, 31.4025132, 31.0543735
El Malek El Saleh Preparatory For Boys, 31.400482, 31.055255
El Malek El Saleh Primary School, 31.2233621, 30.0130159
El Malek El Saleh Secondary School, 31.2304348, 30.0172377
El Malek Fahd Primary School For Boys, 31.3434255, 30.046717
El Malek Fahd Secondary School For Boys, 31.344037, 30.04724
El Malek Faisal El Gadida Primary School, 32.516162, 29.989569
El Malek Faisal El Qadima Primary School, 32.5160645, 29.9895537
El Malek Faisal Preparatory School For Boys, 31.465353, 30.877564
El Malek Faisal Preparatory School For Girls, 32.2656561, 31.2677005
El Malek Faisal Preparatory School For Girls, 31.461301, 30.879357
El Malek Mina School, 29.958145, 31.1988417
El Mallaha Primary School, 32.694814, 25.7803
El Mallaha School, 31.561823, 30.520536
El Mamourah Primary Mixed School, 30.0532669, 31.296237
El Manakh Primary School, 32.2798275, 31.2723321
El Manal Primary School, 31.140511, 30.126746
El Manar Secondry School For Boys, 31.2169, 30.083875
El Manawat Preparatory Mixed School, 31.25422, 29.932488
El Mandara El Qebleya El Gadida Primary School, 30.0183632, 31.2684685
El Mandara Elementary School, 30.018422, 31.268835
El Mania Preparatory School, 31.819898, 31.41108
El Manial Preparatory School, 31.384829, 31.116066
El Manial Preparatory School For Girls, 31.223462, 30.02226
El Manial Primary School, 31.385376, 31.116663
El Mannar Preparatory School For Girls, 31.220184, 30.082227
El Mansheya El Bahareya School, 30.0255469, 31.2504171
El Mansheya Primary Mixed School, 32.715625, 26.162126
El Mansheya Primary School, 29.8907224, 31.1985817
El Mansoura Modern Preparatory School For Boys, 31.3674607, 31.0398814
El Mansoura Preparatory School For Girls, 31.3899216, 31.0492539
El Mansoura School For Boys, 31.390113, 31.047212
El Mansoura Secondary School For Girls, 31.3902864, 31.0495388
El Manzala Preparatory School For Boys, 31.926891, 31.162707
El Marazeeq Preparatory School, 31.266918, 29.813857
El Marazeeq School, 31.259091, 29.814183
El Marg Preparatory School For Girls, 31.341655, 30.150875
El Marg Secondary School For Girls, 31.3413404, 30.1520795
El Marsad Preparatory School For Girls, 29.890795, 31.198562
El Marsah & El Khashashna Preparatory School, 31.567991, 31.080853
El Marwa Preparatory School For Girls, 32.2634098, 31.2538268
El Marwa Primary School, 33.618293, 28.264095
El Marwa Primary School, 29.895384, 31.1796331
El Masanda Primary School, 31.2662235, 29.6302548
El Masaweya Preparatory Mixed School, 32.573165, 25.250688
El Masaweya Primary Mixed School, 32.572666, 25.25375
El Masged El Aqsa School, 32.2588554, 31.2684113
El Mashad Primary Mixed School, 30.9526, 30.981172
El Mashroua El Gadid Primary School, 31.571746, 31.416724
El Maslameya Preparatory School, 31.523311, 30.523702
El Maslameya Primary School, 31.523311, 30.523702
El Masnaa New Primary School, 30.1148216, 31.1467102
El Masreya Preparatory School For Girls, 31.214229, 30.009336
El Mataana Primary Mixed School, 32.560134, 25.376802
El Matania School, 31.253394, 29.572361
El Matar Primary School, 29.9576622, 31.1981626
El Matareya Secondary School For Boys, 31.3103431, 30.1259434
El Max Preparatory School For Boys, 29.8385346, 31.1472038
El Max Preparatory School For Girls, 29.8364962, 31.146219
El May New Preparatory School, 30.9738734, 30.540128
El Menia El Haditha Preparatory School For Girls, 30.752018, 28.103363
El Menia Preparatory School For Boys, 30.751762, 28.104621
El Menia Secondary Military School For Boys, 30.75342, 28.105331
El Menia Secondary School For Girls, 30.760133, 28.096845
El Menshawy Preparatory School For Girls, 31.000987, 30.789165
El Mesairy School, 31.748804, 31.169335
El Mesalla Preparatory School For Girls, 31.308835, 30.13002
El Metwa Primary School, 31.450196, 30.954424
El Midan Primary School, 29.88653, 31.2011752
El Minaa El Gadida School, 31.793334, 31.429872
El Minaa El Sharqy Primary School, 29.8809886, 31.2082995
El Minaa Mixed Secondary School, 33.8394194, 27.2304798
El Mithaq Primary School, 29.627391, 30.944553
El Moalemeen City Primary Mixed School, 31.194059, 27.169406
El Moassasa El Gadida Secondary School For Girls, 31.285441, 30.08501
El Mobtadaian Secondary School, 31.238719, 30.03433
El Moez Ledin Allah Primary School, 31.335434, 30.647729
El Mohamadeya Preparatory School For Boys, 31.2503475, 30.0387274
El Mohamadeya Preparatory School For Girls, 31.252105, 30.034937
El Mohamadeya Primary School, 29.9813595, 31.246755
El Mohamadeya School, 31.618009, 31.364814
El Mohamedeya Primary School, 31.2005796, 30.0097428
El Mohandes Aly Soliman Primary School, 32.2700376, 31.2727946
El Mohandes Mohamed Hassan Dorra School, 31.820263, 31.422113
El Mohandes Othman Ahmed Othman School, 32.2901702, 30.600708
El Mohandes Sedqy Soliman Secondary School For Boys, 31.3742142, 30.054411
El Mohandeseen Preparatory School For Boys, 31.194642, 30.047694
El Moneeb Primary Mixed School, 31.209991, 29.979379
El Monira El Gadida Primary Mixed School, 31.239983, 30.03544
El Monira New School, 31.212898, 30.087606
El Monira Preparatory School For Girls, 31.236695, 30.0351446
El Monira Secondary School For Girls, 31.2346002, 30.0320601
El Montazah Preparatory School For Girls, 31.805667, 31.426165
El Montazah Primary School, 31.806139, 31.429377
El Montazah Secondary School For Girls, 30.058299, 31.3027328
El Moqataa Preparatory School, 31.559407, 30.892663
El Moqataa Primary School, 31.560851, 30.891412
El Moqataa Secondary Mixed School, 31.560327, 30.892134
El Moqataa Secondary Technical School, 31.548335, 30.898367
El Morqoseya Secondary School For Boys, 29.898956, 31.198525
El Mostakbal Preparatory School For Girls, 31.216729, 30.082807
El Mostaqbal El Araby Primary School, 31.301279, 30.092585
El Mostaqbal Preparatory School, 31.243089, 29.800135
El Mostaqbal Preparatory School For Girls, 31.310868, 30.126402
El Mostaqbal Preparatory School For Girls, 32.5085932, 29.9942067
El Mostaqbal School, 31.681094, 31.433991
El Mostaqbal School For Primary Education, 30.93411, 29.920237
El Mostashar Aly Abdullah School, 31.383498, 30.635272
El Mostashar El Sayed Aly El Sayed Preparatory School, 31.671095, 31.119327
El Mostashar Mahmoud Gaafar Preparatory School, 31.570893, 30.831238
El Mostashar Mohamed Abdel Aziz El Zoghby Primary School, 31.63912, 31.089872
El Mostashar Mokhtar Aly Gabr School, 31.523868, 30.898492
El Mostashar Noaman Hassan Heikal Primary School, 31.573699, 30.827085
El Motafaweqin Secondary School For Boys, 31.321938, 30.133066
El Mothalath Primary School, 32.5301179, 29.9834867
El Moushir Abdel Ghany El Gamsy Secondary School For Boys, 30.009984, 31.247833
El Moushir Ahmed Badawy Secondary School For Boys, 29.911667, 31.193935
El Moushir Ahmed Ismail Preparatory School, 31.143795, 29.985647
El Moushir Ahmed Ismail Preparatory School For Girls, 32.3068884, 31.2684043
El Moushir Ahmed Ismail Primary School, 32.559711, 30.11251
El Moushir Ahmed Ismail Secondary Military School For Boys, 32.25986, 30.594343
El Moushir Ahmed Ismail Secondary School, 31.4562875, 30.171417
El Moushir Ahmed Ismail Secondary School For Boys, 31.1871332, 27.175072
El Moushir Mohamed Abdel Ghany El Gamsy Secondary School, 30.9786236, 30.6140812
El Mowasah Primary Mixed School For Boys, 31.2830248, 30.0717796
El Nabawy El Mohandes Preparatory School, 31.685805, 26.563731
El Nabawy El Mohandes Primary School, 30.0156328, 31.2766379
El Nadafeen Preparatory School, 32.491041, 25.546749
El Nadafeen Primary School, 32.49139, 25.546343
El Nagah Modern Preparatory School, 30.6491761, 31.1256531
El Nagah New Preparatory School For Girls, 30.6400698, 31.1343661
El Nagah Primary School, 31.372082, 31.050641
El Nagah Primary School, 31.437115, 30.872508
El Nagdy Preparatory School, 31.53625, 30.614356
El Nagdy School, 31.536437, 30.614628
El Naggareen Primary School, 31.7606, 31.354462
El Nahda El Gadida Preparatory School, 31.676733, 31.04937
El Nahda El Gadida Primary School, 31.65866, 31.065222
El Nahda El Haditha Primary Mixed School, 31.2370705, 30.0817404
El Nahda El Nesaeya Primary Mixed School, 31.241292, 30.071561
El Nahda El Noubeya Preparatory School For Boys, 29.9072313, 31.1870334
El Nahda Modern Primary School, 31.800763, 30.731226
El Nahda Preparatory School, 31.174696, 30.016722
El Nahda Preparatory School For Boys, 31.2462704, 30.01577
El Nahda Preparatory School For Boys, 31.215779, 30.072153
El Nahda Preparatory School For Girls, 29.9291772, 30.9806215
El Nahda Preparatory School For Girls, 31.180926, 27.180764
El Nahda Preparatory School For Girls, 30.851529, 29.308554
El Nahda Primary Modern School, 32.287134, 30.616304
El Nahda Primary School, 32.623883, 25.231088
El Nahda Primary School, 29.9287078, 30.9809527
El Nahda Primary School, 31.317939, 30.626054
El Nahda Primary School, 31.768312, 31.169638
El Nahda Primary School, 31.561049, 30.891074
El Nahda Scientific Primary School, 29.9050775, 31.1832484
El Nahda Secondary Mechanical School For Boys, 31.44396, 30.174466
El Nahda Secondary School For Girls, 31.436163, 30.171913
El Nahda Vocational School For Boys, 31.2350039, 29.9955527
El Nahhal Preparatory School For Girls, 31.507877, 30.58414
El Nahhal School, 31.507944, 30.584202
El Nakhas Preparatory School, 31.425678, 30.620948
El Nasr Preparatory School, 31.350633, 29.840821
El Nasr Preparatory School, 32.64203, 25.663229
El Nasr Preparatory School For Boys, 32.2786774, 31.2689775
El Nasr Preparatory School For Girls, 31.246548, 30.072654
El Nasr Preparatory School For Girls, 31.291089, 30.091488
El Nasr Primary Mixed Modern School, 31.190231, 27.181702
El Nasr Primary School, 31.2896245, 29.8893425
El Nasr Primary School, 31.2318241, 30.0634393
El Nasr Primary School, 31.258357, 30.052059
El Nasr Primary School, 32.3165841, 31.2447373
El Nasr Primary School, 31.056664, 30.310398
El Nasr Primary School, 31.218568, 29.953279
El Nasr Primary School, 30.6492163, 31.1258517
El Nasr Primary School, 31.311828, 30.716607
El Nasr Primary School, 32.53961, 25.617242
El Nasr Primary School, 31.642658, 31.341421
El Nasr Primary School, 31.476368, 31.142231
El Nasr Primary School, 31.463989, 31.039624
El Nasr Primary School, 31.392735, 30.900077
El Nasr Primary School, 32.48584, 25.552571
El Nasr Primary School, 29.9628734, 31.2320726
El Nasr Primary School, 31.512643, 30.596682
El Nasr Primary School For Boys, 32.646445, 25.706784
El Nasr School, 31.218046, 30.085571
El Nasr School, 31.274192, 29.852723
El Nasr Secondary School For Boys, 32.2952556, 31.2691288
El Nasser El Gadida Primary School, 32.5387332, 29.9725367
El Nasser Preparatory Mixed School, 32.4598173, 29.9454641
El Nasser Primary Mixed School, 31.2406567, 30.0658117
El Nasser Primary Mixed School, 32.5391087, 29.9724902
El Nasser Primary School, 31.256621, 30.058409
El Nasser Primary School, 32.2846622, 31.260874
El Nassereya El Qadima Secondary School For Boys, 29.966787, 31.236257
El Nassereya Modern School, 31.727274, 31.268262
El Nassereya Preparatory Mixed School, 31.48864, 30.581867
El Nassereya Preparatory School For Girls, 31.332033, 30.116632
El Nassereya Primary Mixed School, 31.152618, 27.265836
El Nassereya Primary School, 31.4657503, 30.877924
El Nassereya Primary School, 31.266423, 30.711761
El Nasserya Primary Ideal School, 31.204967, 30.029674
El Nawaser El Gadida School, 32.552555, 25.363868
El Nawasereya Preparatory School, 31.642851, 31.340227
El Nekareya Preparatory School, 31.467097, 30.59996
El Nemsa Preparatory School, 32.566432, 25.258626
El Nemsa Secondary Mixed School, 32.562704, 25.258931
El Nezam School, 31.506142, 30.584514
El Nezara Primary School, 31.750789, 31.227642
El Nil Modern Preparatory School For Girls, 31.8136194, 31.410338
El Nil Preparatory School For Boys, 31.197991, 27.180179
El Nil Preparatory School For Boys, 29.9065904, 31.1809992
El Nil Primary Mixed School, 31.241292, 30.071561
El Nil Primary Mixed School, 31.320114, 27.049103
El Nil Primary Mixed School, 32.536346, 29.9710217
El Nil Primary School, 31.680491, 31.256542
El Nil Primary School, 32.758274, 25.918553
El Nil Primary School, 31.217311, 30.0833278
El Nil Primary School, 31.400251, 31.055457
El Nil Primary School, 31.457242, 30.750325
El Nil Secondary School For Boys, 31.101135, 29.074269
El Nil Secondary School For Boys, 29.9065287, 31.1811575
El Nile Preparatory School For Girls, 31.2170693, 30.0733293
El Nogoua Bahary Preparatory School, 32.551095, 25.356272
El Nogoua Bahary Secondary Mixed School, 32.551594, 25.355549
El Nogoua Qebly School, 32.548457, 25.329999
El Nogoum Primary School, 31.3375026, 30.0948258
El Noqrashy Preparatory School For Boys, 31.282519, 30.085597
El Noqrashy Primary School, 32.551369, 25.292455
El Norus Primary School, 29.8273473, 31.1314592
El Nouba Primary School, 32.576153, 25.613769
El Nour & El Eman School, 31.265271, 29.960284
El Nour Hammamat El Qobba For Blind Boys, 31.301941, 30.092547
El Nour Secondary School For Blind Girls, 31.1961, 30.0462
El Nour Secondary School For Blinds, 31.510676, 30.596599
El Nozha Elementary School For Boys, 29.938813, 31.207022
El Nozha School, 31.468516, 31.103114
El Nozol Preparatory School, 31.669445, 31.16441
El Nozol Primary School, 31.66881, 31.164625
El Obour & El Shaimaa Primary School, 31.1987477, 30.0294655
El Obour Preparatory School For Boys, 32.27287, 31.270424
El Obour Preparatory School For Girls, 31.3594436, 30.0636598
El Obour Preparatory School For Girls, 31.2611112, 29.9584645
El Obour Preparatory School For Girls, 31.2576297, 30.0815117
El Obour Preparatory School For Girls, 32.260059, 30.562092
El Obour Primary School, 31.323442, 29.848571
El Obour Primary School, 32.295228, 30.609254
El Obour Primary School, 32.315431, 31.243878
El Obour Primary School, 32.497226, 25.554043
El Obour Primary School For Boys, 31.3496209, 30.0528413
El Obour Secondary School For Boys, 31.476843, 30.237612
El Odaysat Preparatory School, 32.491486, 25.561965
El Odaysat Primary School, 32.487856, 25.570267
El Ola El Gharbeya Primary School, 29.8718636, 30.9669541
El Ola El Sharqeya Primary School, 29.8854143, 30.9906748
El Ola Primary School, 29.6216082, 30.8230656
El Omda El Taher Preparatory School, 32.637353, 25.715219
El Omda El Taher Primary School, 32.637302, 25.715196
El Omda Ezz El Din Primary School, 31.657217, 31.06315
El Omda Preparatory School, 31.397746, 30.807381
El Omda Primary School, 31.158181, 29.991576
El Omraneya Primary School, 31.2066677, 30.0063344
El Oqoul El Mostanira Secondary School For Boys, 29.5438429, 30.9041671
El Orman Preparatory Ideal School For Boys, 31.212041, 30.04698
El Orman Preparatory School, 31.378428, 31.076387
El Orman Preparatory School, 31.3988667, 30.943191
El Orman Primary School, 31.4032495, 30.9392663
El Orman Secondary School For Girls, 31.218942, 30.036593
El Orman Secondary Technical School For Girls, 31.40296, 30.938986
El Orouba Preparatory School, 31.321005, 29.847608
El Orouba Preparatory School For Girls, 31.458729, 30.876398
El Orouba Primary School, 31.662579, 31.180233
El Orouba Primary School, 31.793302, 31.076135
El Orouba Primary School, 29.8633424, 31.1625459
El Orouba Primary School, 31.218284, 30.07635
El Orouba Primary School, 32.652451, 25.707562
El Orouba Primary School, 31.390912, 31.043793
El Orouba School, 31.648103, 31.355689
El Orwa El Wothka Primary School, 29.9643222, 31.2334413
El Orwa El Wothqa Primary School For Boys, 29.9343108, 31.2014503
El Orwa El Wothqa Primary School For Girls, 29.9345738, 31.2019091
El Owaidat New Primary School, 32.814682, 25.997188
El Qabahy El Gharby Preparatory Mixed School, 32.661945, 25.692435
El Qabbary Primary School, 29.929794, 31.204979
El Qabouty Preparatory School For Boys, 32.2840494, 31.2367519
El Qabouty Preparatory School For Girls, 32.2828557, 31.2389053
El Qabouty Primary School, 32.2807207, 31.2428406
El Qada Primary School, 32.708997, 25.708899
El Qada School, 32.531735, 25.462889
El Qadeseya Primary Mixed School, 31.2379667, 30.0895942
El Qadeseya Primary School, 31.2735, 30.626649
El Qady Sharaf El Din Profession School For Girls, 31.2500869, 30.0451702
El Qaitoun Preparatory School, 31.307817, 30.600163
El Qaitoun Secondary School, 31.309737, 30.601788
El Qalag Preparatory School For Girls, 31.356245, 30.187666
El Qalioubeya Preparatory School, 31.560019, 31.12262
El Qalioubeya Primary School, 31.55966, 31.122698
El Qanater Secondary School For Girls, 31.137525, 30.190133
El Qanayat Secondary Mixed School, 31.460375, 30.615593
El Qarabeya Preparatory School, 31.2382294, 30.0419819
El Qaraya Mixed School, 32.561451, 25.276199
El Qarya El Baida Primary School, 29.8752596, 31.0168288
El Qassaseen Secondary Mixed School, 31.935559, 30.565762
El Qassed Preparatory School For Girls, 31.008027, 30.793263
El Qattameya Primary School, 31.3990358, 29.9773879
El Qattan Primary School, 32.495622, 25.581681
El Qawmeya El Arabeya Preparatory School For Boys, 29.9215758, 31.2002641
El Qawmeya El Arabeya Primary School, 31.2909669, 30.10722
El Qawmeya El Arabeya Primary School, 31.235939, 30.059054
El Qawmeya El Arabeya Primary School, 31.327236, 30.810726
El Qazazin School, 31.713668, 31.225467
El Qebab El Kobra Primary School, 31.528471, 31.090219
El Qebab El Soghra Preparatory School, 31.562331, 31.086389
El Qebly Qamoula Preparatory School, 32.725739, 25.785836
El Qebly Qamoula Primary School, 32.726791, 25.789937
El Qobba El Fedaweya Preparatory School For Girls, 31.281978, 30.068066
El Qobba Secondary School For Boys, 31.303786, 30.092029
El Qods El Sherif Primary School For Boys, 31.1653222, 30.443527
El Qods Preparatory Mixed School, 29.971261, 30.9788856
El Qods Primary School, 31.182042, 30.054882
El Qolaly Primary School, 31.2402123, 30.0608093
El Qorana Agriculture Secondary School, 32.621611, 25.717637
El Qorana Preparatory School, 32.633513, 25.740454
El Qorana Primary School, 32.629404, 25.727552
El Qorana Secondary Mixed School, 32.622217, 25.716018
El Qorasheya New Primary Mixed School, 31.123055, 30.84506
El Qorasheya Secondary Mixed School, 31.119358, 30.847751
El Qorashy Preparatory School For Boys, 31.115648, 30.848891
El Qotoury Preparatory Mixed School, 31.210624, 29.453425
El Qouseya Preparatory Modern School, 30.8167684, 27.4439812
El Qouseya Preparatory School For Boys, 30.8169427, 27.4436836
El Qouseya Primary Mixed School, 30.8155507, 27.4398798
El Qouseya Primary New School, 30.8155507, 27.4398798
El Quseir Secondary School For Girls, 34.271064, 26.115281
El Radiseya Secondary Mixed School, 32.881773, 24.9097
El Radwan School, 32.2846824, 30.948995
El Radwaneya Preparatory Mixed School, 32.629781, 25.635844
El Raed Preparatory Mixed School, 32.506957, 30.1044587
El Rahamna New Primary School, 31.756639, 31.293494
El Rahamna Preparatory School For Boys, 31.759339, 31.295882
El Rahamna Preparatory School For Girls, 31.752977, 31.292698
El Rahamna Primary Mixed Modern School, 30.0265574, 31.2201958
El Rahamna Primary School, 31.759847, 31.296226
El Rahamna Secondary School, 31.759425, 31.296384
El Rahmaneya School, 31.356933, 30.631727
El Raml Preparatory School, 29.947498, 31.224511
El Raml Preparatory School For Boys, 29.9700896, 31.2475249
El Raml School, 29.977275, 31.242544
El Raml Secondary School - Girls, 29.955986, 31.235238
El Raml Secondary School For Boys, 29.966284, 31.238111
El Ramla Secondary Mixed School, 31.167409, 30.4431293
El Ramleya Preparatory School For Boys, 29.962329, 31.231562
El Ramzeya Preparatory School, 31.56812, 30.858699
El Rashad Islamic Primary School, 29.9260016, 31.1971662
El Rashad Preparatory School, 31.312214, 30.123138
El Rashad Primary Mixed School, 31.3234377, 29.8419956
El Rashad Primary Mixed School, 31.2434464, 30.088443
El Rashad Primary School, 31.253848, 30.717848
El Rashid Preparatory Mixed School, 31.1944288, 30.0290352
El Rashid School, 31.190714, 29.939091
El Ratma Primary School, 31.830778, 31.475153
El Rawafaa Primary Mixed School, 32.611113, 25.644389
El Rawda Preparatory School For Boys, 31.228951, 30.024587
El Rawda Preparatory School For Boys, 31.767654, 31.319859
El Rawda Preparatory School For Girls, 31.759275, 31.3237
El Rawda Primary School, 31.405733, 30.901081
El Rawda School, 31.759077, 31.325972
El Rawda School, 31.403894, 31.123295
El Rawda Secondary Mixed School, 31.758565, 31.325239
El Raydaneya Preparatory Profession School, 31.446907, 31.075174
El Raydaneya Preparatory School, 31.442572, 31.072712
El Raydaneya Primary School, 31.446659, 31.074935
El Rayyaneya Primary Mixed School, 31.670027, 26.708588
El Refaey Primary Mixed School, 31.2575572, 30.0357483
El Rekabeya El Gadida Primary School, 31.584202, 31.425569
El Rekabeya School, 31.576699, 31.413252
El Riad Agriculture School, 31.73034, 31.152498
El Riad Preparatory School, 31.734808, 31.155187
El Riad Preparatory School, 31.671741, 31.401774
El Riad Primary School, 31.737847, 31.160171
El Robaiaa Preparatory School, 31.793452, 31.075841
El Robaiaa Secondary School, 31.793168, 31.07585
El Rowad Primary School, 29.8114174, 31.0544091
El Rowaey Primary School, 31.25141, 30.052021
El Roziqat Bahary Primary School, 32.464618, 25.594855
El Roziqat Qebly Primary School, 32.465227, 25.577706
El Saadany Primary School, 31.686437, 31.352373
El Saaraneya Primary Mixed School, 30.1379709, 31.1343272
El Sabah El Gadida Primary School, 32.5180694, 29.9810472
El Sabah El Qadima Primary School, 32.5257056, 29.9859353
El Sabah Preparatory School, 31.237289, 30.021667
El Sabah Preparatory School For Boys, 32.5230074, 29.9854289
El Sabah School, 32.5675625, 29.9441979
El Sabbah Mixed School, 32.2939119, 30.5101415
El Sabbaheen Secondary School, 31.232527, 30.02459
El Sabteya Secondary School For Boys, 31.235993, 30.065096
El Sadat Preparatory School, 31.346218, 30.721303
El Sadat Preparatory School, 31.737185, 26.566101
El Sadat Preparatory School, 32.596141, 25.268221
El Sadat Preparatory School For Boys, 31.676143, 30.534022
El Sadat Preparatory School For Boys, 31.499661, 30.585302
El Sadat Preparatory School For Boys, 32.165024, 26.052058
El Sadat Preparatory School For Boys, 31.625143, 30.797228
El Sadat Preparatory School For Girls, 31.3457912, 29.8403997
El Sadat Preparatory School For Girls, 31.508936, 30.584897
El Sadat Primary Mixed School, 31.187113, 30.003697
El Sadat Primary School, 31.2563342, 30.0352259
El Sadat Primary School, 32.486771, 25.559361
El Sadat Primary School, 31.215211, 30.079509
El Sadat Primary School, 32.5399214, 29.9844021
El Sadat Primary School, 31.347342, 30.767034
El Sadat Primary School, 30.956031, 30.966038
El Sadat Primary School, 31.0572372, 30.3103179
El Sadat Primary School, 32.887108, 24.067841
El Sadat Primary School, 31.467606, 30.57938
El Sadat Primary School, 32.465171, 25.577738
El Sadat Primary School, 31.509089, 30.584633
El Sadat Primary School, 31.9157083, 30.8591133
El Sadat Primary School, 31.131968, 30.121651
El Sadat Primary School, 31.708011, 31.33651
El Sadat Primary School, 31.2617889, 30.7176204
El Sadat School, 31.273699, 29.77424
El Sadat School, 32.5399911, 29.9839049
El Sadat Secondary Military School, 31.461507, 30.746811
El Sadat Secondary Mixed School, 31.803102, 31.433002
El Sadat Secondary School For Boys, 31.509527, 30.576308
El Sadat Secondary School For Boys, 31.1732608, 30.9823439
El Sadat Secondary School For Boys, 29.895916, 31.187789
El Sadat Secondary School For Girls, 31.2458178, 30.9667066
El Sadat Secondary School For Girls, 31.5086844, 30.5845783
El Safa Preparatory Mixed School, 32.4777625, 29.9551157
El Safa Primary School, 31.294617, 30.042312
El Safa Primary School, 31.152063, 30.149456
El Safa Primary School, 32.477505, 29.9548659
El Safa Primary School, 31.502148, 30.522112
El Safaa Primary Mixed School, 31.072319, 30.165995
El Safatawy Primary School, 31.311362, 31.094262
El Saff Preparatory School, 32.516887, 25.64053
El Saff Preparatory School For Boys, 31.287045, 29.574908
El Saff Preparatory School For Girls, 31.286349, 29.573432
El Saff Secondary Mixed School, 31.282694, 29.580175
El Sagagna Primary School, 32.493428, 25.535537
El Sahel Primary Mixed School, 31.251721, 30.0995252
El Saideya El Bahareya Secondary School, 31.665891, 31.392293
El Saideya El Qebleya School, 31.661391, 31.37953
El Saideya Marine School, 31.66227, 31.390947
El Saideya Military Secondary School, 31.210377, 30.023104
El Saideya Old Preparatory School For Girls, 30.9404317, 31.1174561
El Saideya Preparatory School For Boys, 31.304711, 30.062068
El Saideya Secondary School For Girls, 31.304722, 30.062077
El Salam Bahr El Baqar Primary School, 32.1000981, 30.8859658
El Salam Electrical School, 31.4203486, 30.1886097
El Salam Preparatory Mixed School, 30.907747, 30.382822
El Salam Preparatory School, 30.532448, 30.826366
El Salam Preparatory School, 31.787925, 31.415625
El Salam Preparatory School For Boys, 31.2626722, 30.0651783
El Salam Preparatory School For Boys, 29.8958246, 31.1752459
El Salam Preparatory School For Boys, 31.410452, 26.992744
El Salam Preparatory School For Boys, 31.452771, 30.881463
El Salam Preparatory School For Girls, 31.674191, 30.732134
El Salam Preparatory School For Girls, 31.2611233, 29.6241076
El Salam Preparatory School For Girls, 31.188142, 30.038183
El Salam Preparatory Secondary School, 31.184569, 27.1805432
El Salam Primary Mixed School, 31.4160547, 30.1573407
El Salam Primary Mixed School, 31.114836, 30.033523
El Salam Primary Mixed School, 31.409682, 26.983134
El Salam Primary Mixed School, 31.190368, 27.1828529
El Salam Primary School, 31.234267, 30.056601
El Salam Primary School, 31.2500524, 30.0314189
El Salam Primary School, 31.403894, 31.123295
El Salam Primary School, 31.308235, 30.712139
El Salam Primary School, 31.188088, 30.038221
El Salam Primary School, 31.287019, 30.781165
El Salam Primary School, 32.563702, 25.628836
El Salam Primary School, 31.746411, 31.383913
El Salam Primary School, 31.596894, 31.143095
El Salam Primary School, 31.47056, 30.917033
El Salam Primary School, 32.563702, 25.628836
El Salam Primary School, 32.637409, 25.193088
El Salam Primary School, 32.58918, 25.644522
El Salam Primary School, 31.28233, 30.640243
El Salam School, 32.513247, 25.301959
El Salam School, 32.506801, 25.48997
El Salam School, 31.334646, 31.072932
El Salam School, 31.240251, 30.960768
El Salam School, 32.549683, 25.344608
El Salam Secondary School For Boys, 30.761923, 28.081219
El Salam Secondary School For Boys, 31.255598, 30.131794
El Salam Secondary School For Boys, 32.517581, 29.985443
El Salam Secondary School For Girls, 31.282877, 30.083341
El Salam Secondary School For Girls, 30.762325, 28.081238
El Salam Secondary School For Girls, 32.260868, 30.614995
El Salam Village Primary School, 31.538181, 31.061408
El Saleheya Primary School, 29.9754251, 31.2216775
El Salimy Primary School, 32.701136, 25.682933
El Sananeya 1 Primary School, 31.79316, 31.430199
El Sanayna Primary School, 32.654709, 25.759991
El Saneya Secondary School For Girls, 31.242143, 30.033701
El Santa El Balad Primary Mixed School, 31.126891, 30.749472
El Santa Secondary Mixed School, 31.116383, 30.730757
El Sarahna Primary School, 29.6457213, 30.9691391
El Sarayat Preparatory School For Girls, 31.2622888, 30.0655412
El Sarib School, 32.618022, 25.226169
El Saudeya Primary School, 31.233841, 29.555138
El Sawahel Preparatory & Secondary School, 29.874586, 31.202063
El Sawalem Preparatory School For Boys, 31.650254, 31.277992
El Sawalem Preparatory School For Girls, 31.650174, 31.278473
El Sawalem Primary School, 31.649248, 31.278954
El Sawalem Secondary School, 31.65015, 31.277506
El Sayed Abdel Dayem Preparatory School, 32.622402, 25.248886
El Sayed Ahmed El Mahrouqy Primary School, 31.23132, 30.06349
El Sayed Arimo Secondary Military School For Boys, 31.2675774, 30.0511686
El Sayed El Salamony Primary School, 31.460778, 31.069863
El Sayed Mahmoud El Sherif Primary School, 31.735845, 26.566965
El Sayed Metwally El Azzazy Primary School, 31.428967, 30.618303
El Sayed Mohamed Abdel Rahim Primary School, 30.985989, 30.779331
El Sayed Mohamed Pasha Preparatory School, 31.693797, 31.287445
El Sayed Omar Aly Secondary School, 31.665556, 31.39184
El Sayed Sorour Preparatory School For Boys, 31.286927, 30.638505
El Sayed Sweilam Secondary School For Girls, 31.73049, 31.162137
El Sayeda Aaesha Preparatory School For Girls, 30.9937757, 30.7857762
