"adm1","hospital","address","phone","specialized","lat","lng"
"Aswan","ادفو العام","ش. مجلس المدينة","4710414",FALSE,24.9804467,32.8813854
"Aswan","السباعية المركزى","السباعية غرب","3413106",FALSE,25.1976735,32.6744623
"Aswan","دراو المركزى","طريق مصر اسوان السريع الزراعى","4730348",FALSE,24.410928,32.9294155
"Aswan","كوم امبو المركزى","حى السبعين - ش. بور سعيد","3510643",FALSE,24.3993765,32.9224033
"Aswan","نصر المركزى","نصر النوبة","2850003",FALSE,24.5388325,33.034381
"Assiut","ابنوب المركزى","ش. بور سعيد","2500555",FALSE,27.2646723,31.155746
"Assiut","ابو تيج المركزى","ش. الجلاء بجوار المحكمه","2483577",FALSE,27.0533778,31.315438
"Assiut","اسيوط العام","ش. 23 يوليو - ميدان المجذوب","2333158",FALSE,27.1774313,31.1834807
"Assiut","الايمان العام","مدينة مبارك - حى الاربعين - ش. 26 يوليو","2371903",FALSE,27.167781,31.1779023
"Assiut","البدارى المركزى","ش. الدواوين","2600555",FALSE,26.9894768,31.4118666
"Assiut","الغنايم المركزى","ش. الجمهورية - الغنايم بحرى","2651777",FALSE,26.8853589,31.3202833999999
"Assiut","القوصية المركزى","ش. الرى","4750777",FALSE,27.4429446,30.8217386
"Assiut","ديروط العام","ش. بور سعيد","4770444",FALSE,27.5516608,30.8153882
"Assiut","ساحل سليم المركزى","ش. 23 يوليو","2631888",FALSE,27.0642489,31.3504608
"Assiut","صدفا المركزى","ش. الجيش","2670777",FALSE,26.9650373,31.3833958
"Assiut","منفلوط المركزى","ش. جمال عبد الناصر","4709805",FALSE,27.3107354,30.9673101
"Luxor","ارمنت المركزى","ش. المستشفى - وابورات ارمنت","095/2625649",FALSE,25.6115773,32.5043714
"Luxor","اسنا المركزى","ش. احمد عرابى","095/2517339",FALSE,25.3024221,32.5539279
"Luxor","الاقصر العام","ش. كورنيش النيل","2372809/ 095",FALSE,25.708371,32.645069
"Luxor","البياضية المركزى","البياضية - ش. المصالح الحكومية","095/2300039",FALSE,25.6644376,32.6313605
"Luxor","القرنة المركزى","الاقصر - البر الغربى ( القرنة ) ش. الاوبرا","095/2314933",FALSE,25.7311001,32.6327483
"Ismailia","الاسماعيلية العام","الاسماعيلية الطريق الدائرى","064/3213914",FALSE,30.6209714,32.2875094
"Ismailia","التل الكبير المركزى","التل الكبير","064/3961636",FALSE,30.5599956,31.7848981
"Ismailia","القصاصين المركزى","القصاصين الجديدة - امام المجمع الطبى","064/3440021",FALSE,30.5601528,31.9392227
"Ismailia","القنطرة شرق المركزى","القنطرة شرق الجديدة","064/3750424",FALSE,30.8916011,32.3688007
"Ismailia","القنطرة غرب المركزى","ش. مجلس المدينة","064/3561029",FALSE,30.8471856999999,32.3139238
"Ismailia","فايد المركزى","ش. مجلس المدينة","064/3561498",FALSE,30.3238532,32.298931
"Alexandria","ابوقير المركزى","ش. البحر الميت - ابوقير البلد","03/5621542",FALSE,31.3137549,30.0676864
"Alexandria","الجمهورية العام","ش. قنال المحمودية - كوبرى راغب - كرموز","03/3624238",FALSE,31.1819112,29.9047498
"Alexandria","العامرية العام","ش مسجد الحاج شرقاوى - بجوار قسم العامرية","03/4480216",FALSE,31.0116147,29.8047146
"Alexandria","العجمى المركزى","العجمى - طريق العامرية ام زغيو - البوابة 8","03/3022520",FALSE,NA,NA
"Alexandria","برج العرب المركزى","مدينة برج العرب بجوار قسم الشرطة","03/4595036",FALSE,30.883657,29.5736664
"Alexandria","راس التين العام","ش. قصر راس التين بجوار قصر ثقافة الإنفوشى","03/4816025",FALSE,31.2100875,29.8780852
"Red Sea","الشلاتين","الشلاتين","065/3305474",FALSE,23.1396786,35.6061071
"Red Sea","الغردقة العام","الدهار - بجوار قرية شدوان السياحية","065/3546740",FALSE,27.2600373,33.8182247
"Red Sea","القصير المركزى","القصير","065/3330070",FALSE,26.1040321,34.2793502
"Red Sea","راس غارب المركزى","ش. الحرية بجوار السنترال","065/3620535",FALSE,28.3624271,33.0819316
"Red Sea","سفاجا المركزى","ش. الجمهوريه امام عمارات الاوقاف","065/3251549",FALSE,26.755756,33.941059
"Behera","ابو المطامير المركزى","ش. المركز","045/2400081",FALSE,30.915995,30.1763501
"Behera","ابو حمص المركزى","ابو حمص بجوار الكوبرى العلوى","045/2560044",FALSE,31.1050825,30.3144693
"Behera","ادفينا المركزى","خط الغابشة","045/2960356",FALSE,31.292988,30.5151994
"Behera","ادكو المركزى","ش. السيد عبد الجليل","045/2915037",FALSE,31.3027001,30.310936
"Behera","التحرير المركزى","ش. المدارس","045/3620335",FALSE,NA,NA
"Behera","الدلنجات المركزى","طريق الدلنجات","045/3600318",FALSE,30.8338793,30.5302495
"Behera","الرحمانية المركزى","بجوار حديقة الامراء","045/2850810",FALSE,31.106784,30.635992
"Behera","المحمودية المركزى","ش. ترعة الرشيدية","045/2500428",FALSE,31.1837315,30.5194514
"Behera","ايتاى البارود المركزى","ش. الجمهورية","045/3430321",FALSE,30.8869579,30.6697341
"Behera","حوش عيسى المركزى","ش. الجمهوريه","045/2700379",FALSE,30.916575,30.298115
"Behera","رشيد المركزى","ش. كورنيش النيل","045/2929829",FALSE,31.4094333,30.4233398
"Behera","شبراخيت المركزى","ش. محمود ابو شلوع","045/3800011",FALSE,31.0276242,30.7042215
"Behera","غرب النوبارية المركزى","غرب النوبارية","045/2632848",FALSE,30.672744,30.073989
"Behera","كفر الدوار العام","مدخل الكوبرى العلوى بجوار الشاملة","045/2212486",FALSE,31.1391586,30.1216234
"Behera","كفر الدوار المركزى","ش. احمد عرابى","045/2212186",FALSE,31.1372681,30.1251072
"Behera","كوم حمادة المركزى","ش. الثورة","045/3680007",FALSE,30.7659001,30.6867403
"Behera","وادى النطرون المركزى","وادى النطرون - طريق مصر اسكندريه الصحراوى","045/3554401",FALSE,30.3948509,30.3709849999999
"Giza","6 اكتوبر المركزى","مدينة 6 اكتوبر - الحى السادس","38322180",FALSE,29.9493524,30.9126848
"Giza","ابو النمرس المركزى","ابو النمرس - ش. المركز","38091330",FALSE,29.9542567,31.2141456
"Giza","اطفيح المركزى","اطفيح","38412301",FALSE,29.4025627,31.2472147
"Giza","البدرشين المركزى","طريق مصر اسيوط - البدرشين","38020523",FALSE,29.8532989,31.278492
"Giza","التحرير العام","امبابه - ش. نصوح","37110046",FALSE,30.0811776,31.2225062
"Giza","الحوامدية العام","طريق مصر اسيوط - الحوامدية","38114164",FALSE,29.887511,31.2727559999999
"Giza","الشيخ زايد","مدينة الشيخ زايد - الحى الاول المجاورة الاولى","38502523",FALSE,30.0320571,31.0031313
"Giza","الصف المركزى","الصف","38620444",FALSE,29.5834036,31.2847012
"Giza","العياط المركزى","ش. الجيش - طريق مصر اسيوط","38606443",FALSE,29.6264719,31.2586141
"Giza","الواحات البحرية المركزى","الباويطى","38472390",FALSE,28.3475945,28.8701362
"Giza","ام المصريين العام","ش. ربيع الجيزى","35720622",FALSE,30.0056062,31.2096369
"Giza","امبابة العام","ميدان بن خلدون - الكيت كات - امبابة","33040116",FALSE,30.065937,31.2077379
"Giza","اوسيم المركزى","اوسيم","38700550",FALSE,30.122015,31.140832
"Giza","بولاق الدكرور العام","ش. ترعة الزمر - بولاق الدكرور","33072002",FALSE,29.9932886999999,31.2048251
"Dakahlia","اتميدة المركزى","اتميدة","050/6800304",FALSE,30.767057,31.3463786
"Dakahlia","اجا المركزى","ش. بورسعيد","050-6456965",FALSE,30.9357852,31.2899948
"Dakahlia","الجمالية المركزى","طريق صان الحجر (حى الزمالك)","050-7731379",FALSE,31.1651466,31.8644922
"Dakahlia","السنبلاوين المركزى","ارض الجمال","050-6691601",FALSE,30.8903928,31.4600797
"Dakahlia","المطرية المركزى","ش. تانيس","050-7750343",FALSE,31.1818601,32.0335847
"Dakahlia","المقاطعة المركزى","المقاطعة","050/6780485",FALSE,30.894519,31.550502
"Dakahlia","المنزلة المركزى","المنزلة","050-7702903",FALSE,31.1629324,31.9460089
"Dakahlia","المنصورة العام الجديد","ش المستشفى الجديد - خلف الاستاد الرياضى","050-2215760",FALSE,31.0320306,31.390968
"Dakahlia","المنصورة العام القديم","ش. الجمهورية من ش. على باشا ابراهيم","050-2249222",FALSE,31.0441204,31.3663155
"Dakahlia","بلقاس المركزى","بلقاس","050/2784321",FALSE,31.2184507,31.348981
"Dakahlia","بنى عبيد المركزى","بنى عبيد","050/2640707",FALSE,31.0259307,31.6437203
"Dakahlia","تمى الامديد المركزى","تمى الامديد - ابو الصير","050/6850767",FALSE,30.9226917,31.5377033
"Dakahlia","جمصة المركزى","ش. الفتح القديمة","050/2740521",FALSE,31.4351822,31.5428918
"Dakahlia","دكرنس العام","دكرنس","050-7481130",FALSE,31.0872426,31.6016763
"Dakahlia","دماص المركزى","دماص","050/6880146",FALSE,30.8093298,31.3210688
"Dakahlia","شبرا سندى المركزى","شبرا سندى","050/6760802",FALSE,30.8720847,31.5407449
"Dakahlia","شبراهور المركزى","كفر شبراهور - السنبلوين","050/6710780",FALSE,30.9151074,31.3913512
"Dakahlia","شربين المركزى","شربين","050/7925935",FALSE,31.1962675,31.5203547
"Dakahlia","طلخا المركزى","ش. البحر","050/2523131",FALSE,31.0500839,31.3721204
"Dakahlia","منية النصر المركزى","ش. كلية التربية النوعية","050/7498419",FALSE,31.1208334,31.6457883
"Suez","السويس العام","ش. صلاح الدين الايوبى - حى السويس","3331194",FALSE,29.9681278,32.5475268
"Sharkia","ابو حماد المركزى","ش. التحرير مركز أبوم حماد","055/3407055",FALSE,30.5407378,31.6776931
"Sharkia","ابو كبير المركزى","ش. مصطفى كامل","055/3510137",FALSE,30.7197761,31.6592395
"Sharkia","الابراهيمية المركزى","ش. الجمهورية","055/2590595",FALSE,30.7236227,31.554163
"Sharkia","الحسينية المركزى","ش. المستشفى","055/2776420",FALSE,30.863928,31.9126975
"Sharkia","الزقازيق العام الجديد","ش الأحرار - طريق الزقازيق","055/2362739",FALSE,NA,NA
"Sharkia","الزقازيق العام القديم","ش. الحكماء بجوار سجن الزقازيق","055/2305036",FALSE,30.5931145,31.5093758
"Sharkia","الزوامل المركزى","حى الزوامل","055/2820113",FALSE,30.3484053,31.4346018
"Sharkia","السعديين المركزى","مينا القمح - السعديين","055/3700877",FALSE,30.4518735,31.3714155
"Sharkia","الصالحية المركزى","الصالحية الجديدة","055/3201692",FALSE,30.6310022,31.9405721
"Sharkia","الصوفية المركزى","اولاد صقر - الصوفية","055/3310303",FALSE,30.913441,31.769875
"Sharkia","القرين المركزى","القرين ش. اللواء عبدالعزيز القمحاوى (القلعة)","055/3440435",FALSE,30.6074675,31.7460251
"Sharkia","القنايات المركزى","طريق الزقازيق المنصورة","055/2630310",FALSE,30.6134086,31.465732
"Sharkia","اولاد صقر المركزى","الطريق السريع","055/3464636",FALSE,30.944387,31.717325
"Sharkia","بلبيس المركزى","بلبيس - بجوار محطة الجديدة","055/2850001",FALSE,30.4309229,31.5599495
"Sharkia","تلراك","تلراك","055/3320174",FALSE,30.891089,31.729352
"Sharkia","ديرب نجم المركزى","ش. 23 يوليو","055/3760591",FALSE,30.7505355,31.450966
"Sharkia","فاقوس العام","فاقوس","055/3172867",FALSE,30.730972,31.786826
"Sharkia","كفر صقر المركزى","ش. التحرير","055/3186088",FALSE,30.7981877999999,31.6285772
"Sharkia","مشتول السوق المركزى","ش. المدينة المنورة","055/2573323",FALSE,30.3613411,31.3851982
"Sharkia","منيا القمح المركزى","ش. الحرية","055/3660049",FALSE,30.5212481,31.3521045
"Gharbia","ابيار","ابيار","040/2580802",FALSE,30.8377933,30.8676573
"Gharbia","السنطة المركزى","ش. المركز","040/5476645",FALSE,30.7323466,31.1261237
"Gharbia","المحلة الكبرى العام","ش. 6 اكتوبر ابو شاهين","040/2223181",FALSE,30.9766799999999,31.1760396
"Gharbia","المنشاوى العام","ش. تكية المنشاوى متفرع من ش. الجيش","040/3302036",FALSE,30.7893686,31.0013312
"Gharbia","بسيون المركزى","ش. 23 يوليو","040/2730197",FALSE,30.9379744,30.8014027
"Gharbia","زفتى العام","ش. الجيش","040/5703065",FALSE,30.7118575,31.2501383
"Gharbia","سمنود المركزى","ش. السكة الحديد","040/2970010",FALSE,30.9654984,31.2434006
"Gharbia","قطور المركزى","ش. المرور طريق طنطا كفر الشيخ","040/2760818",FALSE,31.0045019,30.8873909999999
"Gharbia","كفر الزيات العام","ش. الجيش بجوار المطافى","040/2545751",FALSE,30.820231,30.819215
"Gharbia","محلة مرحوم المركزى","محلة مرحوم","040/3603741",FALSE,30.8133888,30.9595799
"Fayoum","ابشواى المركزى","ش. الجمهورية","6710474",FALSE,29.3707596,30.6883657
"Fayoum","اطسا المركزى","ش. عمر بن الخطاب","6413427",FALSE,29.2370397,30.7986739
"Fayoum","الفيوم العام","ش. النبوى المهندس - دار رماد","342803",FALSE,29.3166622,30.8494481
"Fayoum","سنورس المركزى","بندر سنورس - ش. المدارس","6907568",FALSE,29.4087034,30.8587204
"Fayoum","طامية المركزى","ش. المستشفى بجوار مركز الشرطة","6610715",FALSE,29.4773475,30.954355
"Fayoum","فيدمين المركزى","فيدمين","6550535",FALSE,29.3837655,30.785123
"Cairo","التبين","بجوار مدرسة الصلب الثانوية بنات - خلف المركز الطبى بالتبين - مساكن الصلب الجديدة","25028815",FALSE,29.7835007,31.3028822
"Cairo","الخازندارة العام","3 ش. شيبان متفرع من ش. شبرا امام هندسة شبرا","22057593",FALSE,30.0830439,31.2461774
"Cairo","الخليفة العام","22 ش. السويفى الحلمية الجديدة - القلعة","23904686",FALSE,30.0335389,31.2536181
"Cairo","الزاوية الحمراء العام","ش. المستشفى بجوار المخبز الالى","24248004",FALSE,30.1016278,31.2663174
"Cairo","الشروق المركزى","الحى الثانى بجوار بنك الاسكان والتعمير","26879119",FALSE,30.1553845,31.6180935999999
"Cairo","القاهرة الجديدة المركزى","التجمع الثالث بجوار الالمانية","27594306",FALSE,29.9789913999999,31.4367506
"Cairo","المنيرة العام","2 ش. نوبار  - السيدة زينب","27947411",FALSE,30.0349052,31.2383557
"Cairo","بدر المركزى","الحى الثالث مجاورة 1","28646681",FALSE,NA,NA
"Cairo","بولاق ابوالعلا العام","5 ش. المطبعة الاهلية","25755211",FALSE,30.0630818,31.2285197
"Cairo","دار السلام العام","987 كورنيش النيل - مصر القديمة","23637769",FALSE,30.0126685,31.2283386
"Cairo","روض الفرج","مجمع مبارك الحضارى - ارض سوق روض الفرج القديم","24608857",FALSE,30.0716171,31.2347182999999
"Cairo","شبرا العام","76 ش. المستشفى من ش. الترعة البولاقية","22352325",FALSE,30.0732158,31.2523966999999
"Cairo","م . 15 مايو","نهاية مجاورة 3 امام حى رجال الاعمال","25503854",FALSE,29.8292791,31.3635364
"Cairo","م . الشيخ زايد ال نهيان","طريق النصر - أباجية - قسم الخليفة","112400601",FALSE,30.0496897,31.2882983
"Cairo","م . حلوان","3 ش. زكى","25564516",FALSE,29.8471568,31.3419845
"Cairo","م . عين شمس","مساكن عين شمس بجوار محطة الكهرباء","22962572",FALSE,30.0766156,31.2902641
"Cairo","منشية البكرى العام","منشية البكرى - 13 ش. جسر السويس","22582336",FALSE,30.0917868,31.3065072
"Kalyoubia","ابو المنجا المركزى","أول طريق القناطر الخيرية - بجوار مصنع ياسين","44459396",FALSE,30.1303711,31.2305649
"Kalyoubia","الخصوص المركزى","ش. النادى بجوار الوحدة المحلية الخصوص","44694016",FALSE,30.15763,31.3124608
"Kalyoubia","القناطر الخيرية المركزى","التقسيم السياحى - ش. النادى","42188148",FALSE,30.1911345,31.1412138
"Kalyoubia","شبين القناطر المركزى","شبين القناطر","2720011",FALSE,30.3183124,31.3093024
"Kalyoubia","طوخ المركزى","ش. الشهيد احمد عبد العزيز","2460131",FALSE,30.3638406,31.1962581
"Kalyoubia","قليوب المركزى","ش. العاشر من رمضان","42157673",FALSE,30.1801448,31.2218678
"Kalyoubia","قها المركزى","ش. مجلس المدينة","132601049",FALSE,30.2862985,31.2071656
"Kalyoubia","كفر شكر المركزى","كفر شكر","013/2526740",FALSE,30.55314,31.2526703
"Kalyoubia","مستشفى حى شرق (بهتيم) المركزى","135 ش. بهتيم العمومى - خلف محطة الكهرباء","48241726",FALSE,30.1379913999999,31.2719202
"Kalyoubia","ناصر العام","ارض نوبار خلف مصانع كريستال عصفور","42201744",FALSE,30.124435,31.258292
"Menoufia","اشمون المركزى","ش. بورسعيد","048/3442029",FALSE,30.2956975,30.9892049
"Menoufia","الباجور المركزى","طريق الباجور منوف بجوار محطة المياه","048/3889075",FALSE,30.432699,31.029017
"Menoufia","السادات المركزى","المنطقة الاولى - ش. الحسن بن على","048/2600047",FALSE,30.3670769,30.5059107
"Menoufia","الشهداء المركزى","ش. بور سعيد","048/2750383",FALSE,30.5977250999999,30.9052277
"Menoufia","بركة السبع العام","طريق هورين - البر الشرقى","048/2994200",FALSE,30.6355611,31.0902881
"Menoufia","تلا المركزى","ش. السادات امام مجلس المدينة","048/3790404",FALSE,30.6844858,30.9502834
"Menoufia","زاوية الناعورة المركزى","زاوية الناعورة","048/2772314",FALSE,30.546114,30.8615579
"Menoufia","سرس الليان المركزى","ش. بور سعيد","048/3531431",FALSE,30.4424808,30.9609492
"Menoufia","قويسنا المركزى","الطريق السريع","048/2573686",FALSE,30.5526142,31.1389988
"Menoufia","منوف العام","ش. الجيش","048/3660012",FALSE,30.4720714,30.9273746
"Menia","العدوة المركزى","ش. بور سعيد","086/7961624",FALSE,28.6950816,30.7745343
"Menia","الفكرية المركزى","ابو قرقاص - ش. بورسعيد","086/2429850",FALSE,27.9352659,30.822401
"Menia","المنيا العام","ش. بن خصيب بجوار الشبان المسلمين","086/2364099",FALSE,28.100991,30.754063
"Menia","بنى مزار المركزى","ش. الابراهيمية","086/7882081",FALSE,28.505166,30.8009005
"Menia","دير مواس المركزى","ش. 26 يوليو","086/2010503",FALSE,27.6442751,30.8576431
"Menia","سمالوط المركزى","الطريق الزراعى","086/7713931",FALSE,28.2960914,30.7102247
"Menia","مطاى المركزى","امتداد ش. الابراهيمية بجوار مجلس المدينة","086/7920503",FALSE,28.4215752,30.7905092
"Menia","مغاغة المركزى","ش. المدارس","086/7550035",FALSE,28.6553588,30.8319363
"Menia","ملوى العام","الترعة الديروطية نهاية ش. 26 يوليو","086/2632266",FALSE,27.729539,30.831981
"New Valley","الخارجة العام","ش. النبوى المهندس","7920777",FALSE,25.4431002,30.549497
"New Valley","الداخلة المركزى","موط","7821555",FALSE,25.4955024,28.9878023
"New Valley","الفرافرة المركزى","الفرافرة","7510047",FALSE,27.0678439,27.9733425
"New Valley","باريس المركزى","باريس","7975006",FALSE,NA,NA
"New Valley","بلاط","بلاط","-",FALSE,NA,NA
"Beni Suef","الفشن المركزى","الفشن","7660346",FALSE,28.8320544,30.9004724
"Beni Suef","الواسطى المركزى","ش. سعد زغلول","2510310",FALSE,29.3507958,31.2030548
"Beni Suef","اهناسيا المركزى","اهناسيا","5720430",FALSE,29.0883939999999,30.9435749
"Beni Suef","ببا المركزى","ش. المستشفى","4400333",FALSE,28.92645,30.972844
"Beni Suef","بنى سويف العام","كورنيش النيل","323243",FALSE,29.0640531,31.1028314
"Beni Suef","سمسطا المركزى","سمسطا","7600309",FALSE,28.9131464,30.8523881
"Beni Suef","ناصر المركزى","ناصر","5821401",FALSE,29.1449997,31.132912
"Port Said","الزهور المركزى","حى الزهور - منطقه عمر بن عبدالعزيز","066/3631152",FALSE,31.2625901,32.2585899
"Port Said","النصر المركزى","ش. عبد الهادى الحديدى - طريق النصر","066/3224797",FALSE,31.2677762,32.2775531
"Port Said","بور سعيد العام","ش. صفية زغلول - طريق النصر","066/3220695",FALSE,31.2637118,32.3049254
"Port Said","بورفؤاد المركزى","منطقة العبور  - تعاونيات بورفؤاد","066/3400849",FALSE,31.2443266,32.3187401
"South Sinai","ابو رديس","ابو رديس","3394014",FALSE,28.9102881,33.1926155
"South Sinai","الطور العام","طور سيناء","3770320",FALSE,28.2471992,33.6226494
"South Sinai","دهب المركزى","دهب","3640208",FALSE,28.4843224,34.494584
"South Sinai","راس سدر","راس سدر","3400214",FALSE,29.5899281,32.7103379
"South Sinai","سانت كاترين","سانت كاترين","3470386",FALSE,28.5665927,33.9528618
"South Sinai","طابا","طابا","3530231",FALSE,29.493174,34.897201
"South Sinai","نويبع المركزى","نويبع","3500302",FALSE,29.0342447,34.6593396
"Damietta","الروضة المركزى","الروضة - بجوار الوحدة المحلية","057-3470418",FALSE,31.325262,31.758889
"Damietta","الزرقا المركزى","ش. النور","057-3858567",FALSE,31.2083327,31.6371274
"Damietta","السرو المركزى","السرو - ش. المستشفى","057-3886099",FALSE,NA,NA
"Damietta","دمياط العام","ش. سعد زغلول امام المحافظة","057-2224340",FALSE,31.4143242,31.8054767
"Damietta","راس البر المركزى","راس البر - ش. 2 من ش. المديرية عشة 2","057-2530327",FALSE,31.5159309,31.8356207
"Damietta","عزبة البرج المركزى","عزبة البرج - ش. الفنار","057-2700309",FALSE,31.5072333,31.8365121
"Damietta","فارسكور المركزى","طريق 5 الحديث","057-3440315",FALSE,31.3350768,31.7189225
"Damietta","كفر البطيخ المركزى","كفر البطيخ - امام مجلس المدينة","057-6660705",FALSE,31.404299,31.7382815
"Damietta","كفر سعد المركزى","كفر سعد","057-3602633",FALSE,31.359735,31.690273
"Damietta","م . دمياط التخصصى","دمياط كورنيش النيل الأعصر الشارع الحربي","057/57332442",FALSE,31.4370815,31.8013314
"Damietta","ميت ابو غالب المركزى","ميت ابو غالب","057-3733818",FALSE,31.29128,31.677571
"Suhag","اخميم المركزى","طريق ناصر الزراعى (اخميم - سوهاج )","093/2589263",FALSE,26.562332,31.729969
"Suhag","البلينا المركزى","ش. الجمهورية بجوار محطة القطار","093/4800301",FALSE,26.2340422,31.996817
"Suhag","المراغة المركزى","ش. المستشفى","093/2530763",FALSE,26.7008715,31.6009978
"Suhag","المنشاة المركزى","ش. عبد المنعم رياض","093/2400333",FALSE,26.479816,31.797351
"Suhag","اولاد حمزه المركزى","اولاد حمزه - العسيرات","093/4935340",FALSE,26.393609,31.822806
"Suhag","جرجا العام","ش. عبدالمجيد مصطفى","093/4676034",FALSE,26.3462727,31.8878818
"Suhag","جزيرة شندويل","جزيرة شندويل","093/2470023",FALSE,26.6232462,31.6402146999999
"Suhag","جهينة المركزى","ش. الشهداء - جهينة الغربية","093/4707793",FALSE,26.669027,31.503022
"Suhag","دار السلام المركزى","دار السلام","093/4850333",FALSE,26.279001,32.058357
"Suhag","ساقلته المركزى","ش. التحرير","093/2510333",FALSE,26.658361,31.666374
"Suhag","سوهاج العام","ش. محمود فهمى النقراشى - ميدان العارف","093/2332007",FALSE,26.5463253,31.7007746
"Suhag","طما المركزى","ش. احمد عرابى","093/2790713",FALSE,26.8968915,31.4420548
"Suhag","طهطا العام","ش. احمد نمير","096/5334394",FALSE,26.7739223,31.4973541
"North Sinai","الشيخ زويد المركزى","حى الكوثر","068/3500323",FALSE,31.2227108,34.1236424
"North Sinai","العريش العام","ش. الجيش من ش. 23 يوليو","068/3352938",FALSE,31.1356206,33.8097898
"North Sinai","بئر العبد المركزى","الشارع العام","068/3540005",FALSE,31.010663,32.994722
"North Sinai","رفح المركزى","حى الصفا - ش. قطاع الامن المركزى","068/3300459",FALSE,31.2570185,34.2277658
"North Sinai","نخل المركزى","نخل","068/3600343",FALSE,29.9099331999999,33.7450699
"Qena","ابو تشت المركزى","ش. المستشفى","096/6710605",FALSE,26.1257877,32.101405
"Qena","الوقف المركزى","السنابسه","096/5440019",FALSE,26.0927766,32.425257
"Qena","دشنا المركزى","ش. طراد النيل - الصعايدة","096/6740502",FALSE,26.1240085,32.4735163
"Qena","فرشوط المركزى","ش. بور سعيد","096/6510527",FALSE,26.0599199,32.1578727
"Qena","قفط المركزى","ش. الجيش","096/6910671",FALSE,25.9959674,32.8102957
"Qena","قنا العام","ش المدارس قنا","096/5337101",FALSE,26.1596439,32.7073087
"Qena","قوص المركزى","ش. النيل","096/6840522",FALSE,25.9217588,32.7515262
"Qena","نجع حمادى العام","ش. التحرير","096/6580191",FALSE,26.0580021,32.2289622
"Qena","نقادة المركزى","ش. طراد النيل","096/6600440",FALSE,25.908751,32.726372
"Kafr El-Shikh","الحامول المركزى","ش. عمر بن الخطاب","047/3800441",FALSE,31.3110097,31.1489493
"Kafr El-Shikh","الرياض المركزى","الرياض - طريق الحامول","047/3860747",FALSE,31.2552851,30.9668219
"Kafr El-Shikh","بلطيم المركزى","طريق المصيف","047/2510860",FALSE,31.557625,31.0815239
"Kafr El-Shikh","بيلا المركزى","ش. الثورة","047/3605131",FALSE,31.1776606999999,31.2273663
"Kafr El-Shikh","دسوق العام","ش. المستشفى","047/2563050",FALSE,31.1377548,30.6441173
"Kafr El-Shikh","سيدى سالم المركزى","ش. الكورنيش","047/2700513",FALSE,31.2680834,30.7845283
"Kafr El-Shikh","فوه المركزى الجديد","ش. الفتح بجوار مدرسه التجاره","047/2976777",FALSE,31.204634,30.545978
"Kafr El-Shikh","قلين المركزى","ش. الجمهورية","047/3400488",FALSE,31.0493263,30.8490729
"Kafr El-Shikh","كفر الشيخ العام","ش. الدستور - بندر كفر الشيخ","047/3232407",FALSE,31.1165211,30.9426713
"Kafr El-Shikh","مطوبس المركزى","ش. داير الناحية","047/2710821",FALSE,31.2926982,30.5249602
"Matrouh","الحمام المركزى","ش الاسكندرية مدينة الحمام","046/4750844",FALSE,30.8518032,29.3848929
"Matrouh","السلوم المركزى","ش. السلوم الرئيسى","046/4800020",FALSE,31.560929,25.159453
"Matrouh","الضبعة المركزى","الضبعة","046/4670019",FALSE,31.030592,28.445541
"Matrouh","العلمين المركزى","امام مجلس المدينة","046/4100212",FALSE,30.8428046,28.9402713
"Matrouh","النجيلة","النجيلة","046/4540130",FALSE,31.407504,26.5782827
"Matrouh","رأس الحكمة للإغاثة والطوارىء","طريق اسكندرية -الطريق السريع قبل مرسى مطروح ب65 ك","046/4500006",FALSE,31.1125298,27.8231657
"Matrouh","سيدى برانى المركزى","سيدى برانى","046/4400070",FALSE,31.610612,25.926092
"Matrouh","سيوه المركزى","منطقة الرمل - ش. السادات","046/4602019",FALSE,29.1947239,25.5168424
"Matrouh","مارينا المركزى","ش الشانزلزية الساحل الشمالي مطروح","046/4060005",FALSE,30.817671,29.030981
"Matrouh","مطروح العام","ش. اسكندرية","046/4933355",FALSE,31.3492894,27.2413547
"Aswan","السد العالى شرق","نفسية السد العالى وعلاج ادمان","097/3480652",TRUE,NA,NA
"Aswan","حميات ادفو","ش. مجلس المدينة","097/4707817",TRUE,24.9620313,32.868836
"Aswan","حميات اسوان","المدينة الصناعية بجوار المسلة الناقصة","097/2302523",TRUE,24.0761296,32.8931353
"Aswan","رمد اسوان","ش. ابطال التحرير","2303025",TRUE,24.0925978,32.8969345
"Aswan","صدر ادفو","ش. كورنيش النيل","097/4711723",TRUE,NA,NA
"Aswan","صدر اسوان","ش. السماد امام كلية التربية","097/2252877",TRUE,NA,NA
"Assiut","اسيوط للصحة النفسية","ش. كوبرى الملك فيصل بجوار مديرية الشئون الصحية","088/9202136",TRUE,27.1858736,31.1677693
"Assiut","الصحة الانجابية","ش. المحطه","4710810",TRUE,NA,NA
"Assiut","حميات اسيوط","ش. جسر السلطان - حى السادات","088/2333317",TRUE,27.1747691,31.1882758
"Assiut","حميات الشامية","ساحل سليم - الشامية","088/2633888",TRUE,NA,NA
"Assiut","رمد اسيوط","ش. الجمهورية ميدان 6 اكتوبر بجوار مركز التدريب","2322100",TRUE,27.1938071,31.1864314
"Assiut","صدر اسيوط","ش. كوبرى الملك فيصل بجوار المديرية","2181552",TRUE,27.1946908,31.1766021999999
"Assiut","مستشفى النساء والولادة","ش. 26 يوليو","2375689",TRUE,NA,NA
"Luxor","حميات ارمنت","ارمنت الوابورات - المراعزة","095/2620346",TRUE,25.6091597,32.5142739
"Luxor","حميات الاقصر","قرية الحبيل","095/2324282",TRUE,25.6539443,32.6926675
"Luxor","رمد اسنا","ش. احمد العربى","095/2510310",TRUE,NA,NA
"Luxor","صدر اسنا","ش. البحر","095/2510441",TRUE,25.3135566,32.569018
"Ismailia","حميات الاسماعيلية","امام كوبرى الجلاء","064/3456463",TRUE,30.5810531,32.2560182
"Ismailia","حميات حلوان","حميات حلوان","25561530",TRUE,30.1790786,31.4508156
"Ismailia","صدر الاسماعيلية","الاسماعيلية","3327742",TRUE,30.5735698,32.2588598
"Alexandria","عباس حلمى لعلاج الادمان","طريق اسكندرية مطروح بين البيطاش والهانوفيل","03/3019340",TRUE,31.111646,29.7914337
"Alexandria","المعموره للصحة النفسية","ش. النبوى المهندس - المعموره","03/5338840",TRUE,31.2699252,30.0255489
"Alexandria","حميات محرم بك","الحضرة -امبروزو امام سجن الحضرة","4293143",TRUE,31.1953428,29.9233675
"Alexandria","دار اسماعيل","9 ش. شريف - مينا البصل","03/3612807",TRUE,31.1862402,29.8918494
"Alexandria","رمد الاسكندرية","ش. وابور المياه امام اكاديمية السادات - محرم بك","3931519",TRUE,31.1973435,29.9166019999999
"Alexandria","صدر المعمورة","ش. النبوى المهندس - المعمورة","03/5333701",TRUE,31.2671797,30.0269479999999
"Alexandria","صدر كوم الشقافة","كوم الشقافة - ش. خوفو امام ورش الترام","03/3623208",TRUE,31.1789994,29.8922403
"Alexandria","مستشفى صلاح العوضى","ش. د. رشاد سويدان - البيطاش","03/3091744",TRUE,31.1172797,29.7927342
"Red Sea","حميات الغردقة","ش. الحجاز طريق المطار","065/3549188",TRUE,27.2198267,33.8184496
"Behera","حميات دمنهور","ش. طريق النصر - مجمع المواقف","045/3349254",TRUE,31.0215544,30.4674843
"Behera","حميات كفر الدوار","المنشيه الجديده - ش. احمد عرابى بجوار مدرسه الصنايع","045/2212181",TRUE,NA,NA
"Behera","رمد دمنهور","ش. الجمهورية","045/3317959",TRUE,31.0454887,30.4674429
"Behera","صدر دمنهور","ش. الجمهورية امام كلية التربية","045/3317715",TRUE,31.0515293,30.4613119
"Behera","مركز فرنكوبازاليا للرعاية النفسية فى المجتمع","مركز الرعاية الصحية بقومبانية ابوقير الخط الوسطانى امام قسم شرطة عرابى","045/2290300",TRUE,NA,NA
"Giza","حميات امبابة","ش. كورنيش النيل","33112430",TRUE,30.083864,31.225769
"Giza","رمد الجيزة","530 ش. الاهرام قبل كوبرى عباس","35723148",TRUE,30.0153611999999,31.216557
"Giza","رمد امبابة","ش. الطيار فكرى زاهر","33118728",TRUE,30.0111019,31.2088447
"Giza","صدر الجيزة","ش. ترعة الزمر - العمرانية الغربية","35624758",TRUE,29.995458,31.202638
"Dakahlia","الدميره للصحة النفسية","دميره","050/2625026",TRUE,31.1408686,31.3804787
"Dakahlia","حميات المنصورة","ش. مستشفى الصدر","050/2245602",TRUE,31.0333744,31.3732542
"Dakahlia","رمد المنصورة","ش. جيهان بجوار مستشفى الطوارىء","050/2242273",TRUE,31.0441115,31.3649736
"Dakahlia","صدر المنصورة","ش. الخلفاء الراشدين","050/2242904",TRUE,31.0343458,31.3748579
"Dakahlia","صدر بهوت","بهوت","050/2784443",TRUE,31.2019456,31.3175496
"Suez","حميات السويس","ش. المستشفيات - خلف السويس العام","3331212",TRUE,29.9665787,32.5452848
"Suez","صدر السويس","حى الملاحة - ش. دار البلدية","062/3331196",TRUE,29.9645410999999,32.5459359
"Sharkia","العزازى للصحة النفسية","كفر العزازى","055/3440536",TRUE,30.5857484,31.7199319
"Sharkia","حميات الزقازيق","النحال - ش. الحميات","055/2283286",TRUE,30.5735346,31.5084102
"Sharkia","حميات فاقوس","ش. بور سعيد","055/3979805",TRUE,30.7309415,31.7881024
"Sharkia","رمد الزقازيق","ش. الجيش (يوسف بك)(طريق هرية الجديد)","055/2303745",TRUE,30.5979929,31.5219237
"Sharkia","صدر الزقازيق","ش. الزراعه","055/2323258",TRUE,30.5723764,31.5095351
"Gharbia","حميات المحلة","طريق سكة طنطا","040/2421185",TRUE,30.9496215,31.1494403
"Gharbia","حميات طنطا","ش. البحر","040/3333878",TRUE,30.785167,30.9943429
"Gharbia","حميات كفر الزيات","طريق مصر الاسكندرية الزراعى","040/2542536",TRUE,30.8130357,30.8203539
"Gharbia","رمد المحلة","ش. محب","040/2232559",TRUE,30.9785335,31.1685472
"Gharbia","رمد طنطا","ش. الجيش","040/3353294",TRUE,30.793867,30.9980344
"Gharbia","صدر المحلة الكبرى","طريق سكة طنطا","040/2420068",TRUE,30.9525298,31.1506344
"Gharbia","صدر طنطا","ش. البحر","040/3334260",TRUE,30.8015364,30.9943088
"Gharbia","طنطا للصحة النفسية","ش. عبد الحى مشهور من ش. الجيش بجوار المستشفى الجامعى","040/3334930",TRUE,30.8028823,30.9939222
"Gharbia","مركز شبرا قاص علاج الادمان","شبرا قاص - امام الوحدة البيطرية","040/5305739",TRUE,NA,NA
"Fayoum","حميات الفيوم","حى السلخانة","332422",TRUE,29.3084021,30.8428497
"Fayoum","رمد الفيوم","ش. سعد زغلول - بندر الفيوم","337363",TRUE,29.3122113,30.846378
"Fayoum","صدر الفيوم","الفيوم - بجوار التامين الصحى","307364",TRUE,29.310379,30.859082
"Cairo","العباسية للصحة النفسية","طريق صلاح سالم بجوار ارض المعارض","22616255",TRUE,30.0683448,31.2982454
"Cairo","حلوان للصحة النفسية","بين العزبتين امتداد ش. منصور","25547387",TRUE,29.854856,31.3389757
"Cairo","حميات العباسية","امتداد ش. رمسيس بجوار المحطة الدولية","23424024",TRUE,30.0642943,31.2933918
"Cairo","رمد قلاوون","80 ش. المعز لدين الله الفاطمى - الحسين - الجمالية","25901681",TRUE,30.0492781,31.2602586
"Cairo","صدر العباسية","ش. السكة البيضاء متفرع من الاتوستراد","23425024",TRUE,30.0572989,31.2950299
"Cairo","مصر الجديدة للصحة النفسية","اخر طريق المطار بجوار فندق موفنبيك خلف محطة بنزين التعاون","24152631",TRUE,30.1218504,31.3953893
"Kalyoubia","الخانكة","الخانكة","4698437",TRUE,30.222636,31.361997